,province,city,area,address,name,lat,lng
0,浙江省,杭州市,上城区,浙江省杭州市上城区延安路179号解百新元华二期负1楼,盒马鲜生(杭州解百城市奥莱C座店),30.255271,120.170281
1,浙江省,杭州市,上城区,浙江省杭州市上城区延安路98号西湖银泰城F3银泰百货B1,联华超市(银泰百货西湖店),30.249758,120.171685
2,浙江省,杭州市,上城区,浙江省杭州市上城区延安路135~139号,家乐福(涌金店),30.253093,120.170471
3,浙江省,杭州市,上城区,浙江省杭州市上城区新塘路29~31号,乐购超市(万科钱塘府店),30.277477,120.222799
4,浙江省,杭州市,上城区,浙江省杭州市上城区望江东路333号物美超市1楼,物美多点超市(望江东路店),30.234085,120.197563
5,浙江省,杭州市,上城区,浙江省杭州市上城区东坡路46号,联华鲸选·半步多(湖滨店),30.261514,120.169902
6,浙江省,杭州市,上城区,浙江省杭州市上城区富春路16号金色家园3号商铺,物美超市(金色家园店),30.227409,120.192756
7,浙江省,杭州市,上城区,浙江省杭州市上城区景昙路9号杭州大厦501城市广场B1,盒马鲜生(杭州大厦501城市广场店),30.265858,120.210286
8,浙江省,杭州市,上城区,浙江省杭州市上城区新塘路29号华润万家庆春店2期1楼,万家MART(庆春店),30.265305,120.214048
9,浙江省,杭州市,上城区,浙江省杭州市上城区新塘路119号新城时代广场4幢,联华超市(太平门直街店),30.266181,120.2062
10,浙江省,杭州市,上城区,浙江省杭州市上城区河坊街18号,布丁酒店(河坊街店),30.244631,120.184153
11,浙江省,杭州市,上城区,浙江省杭州市上城区江城路863号1层,汉庭酒店(城站店),30.247449,120.186441
12,浙江省,杭州市,上城区,浙江省杭州市上城区江城路744号,7天酒店(城站地铁站店),30.245722,120.186235
13,浙江省,杭州市,上城区,浙江省杭州市上城区城星路89号,亚朵酒店(杭州钱江新城店),30.244726,120.214606
14,浙江省,杭州市,上城区,浙江省杭州市上城区高银街58号,布丁严选酒店(杭州西湖河坊街十竹斋艺术馆店),30.246509,120.176951
15,浙江省,杭州市,江干区,浙江省杭州市江干区庆春东路78号(近凯旋路),浙江紫晶大酒店,30.263919,120.199093
16,浙江省,杭州市,上城区,浙江省杭州市上城区秋涛北路76号,杭州中豪大酒店(秋涛北路店),30.266517,120.207656
17,浙江省,杭州市,上城区,浙江省杭州市上城区昙花庵路58号,欧凯大酒店(花庵路店),30.276957,120.220254
18,浙江省,杭州市,上城区,浙江省杭州市上城区中河中路166号,全季酒店(西湖解放路店),30.257749,120.179273
19,浙江省,杭州市,上城区,浙江省杭州市上城区钱江路1366号华润大厦A座35-49层,杭州柏悦酒店,30.25991,120.22151
20,浙江省,杭州市,上城区,浙江省杭州市上城区河坊街180号,河坊街景区,30.24564,120.175844
21,浙江省,杭州市,上城区,杭州市上城区万松岭路81号,万松书院,30.233491,120.1679
22,浙江省,杭州市,上城区,浙江省杭州市上城区吴山3号,城隍阁景区,30.24208,120.171139
23,浙江省,杭州市,上城区,浙江省杭州市上城区之江路1078号,城市阳台,30.247924,120.223261
24,浙江省,杭州市,上城区,杭州市上城区吴山3号,吴山景区,30.240151,120.170604
25,浙江省,杭州市,上城区,浙江省杭州市上城区中山中路1号,伍公山,30.244075,120.177794
26,浙江省,杭州市,上城区,杭州市上城区吴山3号,吴山大观,30.242679,120.172033
27,浙江省,杭州市,上城区,杭州市上城区城隍山吴山3号,吴山天风,30.245382,120.171233
28,浙江省,杭州市,上城区,浙江省杭州市上城区南山路127号,古涌金门,30.252257,120.167104
29,浙江省,杭州市,上城区,杭州市上城区太庙巷62号,泼水观音,30.237924,120.173899
30,浙江省,杭州市,江干区,浙江省杭州市江干区景昙路与凤起东路交叉口西北侧,佳好佳居饰商城-东区,30.271176,120.20946
31,浙江省,杭州市,上城区,浙江省杭州市上城区秋涛北路118号,佳好佳居饰商城-D楼,30.271828,120.208018
32,浙江省,杭州市,上城区,浙江省杭州市上城区河坊街376号2楼,吴山品悦·翡翠珠宝商场,30.246044,120.169729
33,浙江省,杭州市,上城区,浙江省杭州市上城区中山中路253号,李宝赢堂(解百新世纪商厦店),30.252375,120.177093
34,浙江省,杭州市,上城区,杭州市上城区西湖大道259号,清波商厦,30.251225,120.170629
35,浙江省,杭州市,上城区,浙江省杭州市上城区解放路251号,解百新世纪商厦,30.255234,120.172036
36,浙江省,杭州市,上城区,杭州市上城区复兴里街复兴东苑西南侧约50米,餐饮用品商城,30.219916,120.176314
37,浙江省,杭州市,上城区,延安南路吴山广场边,吴山商城,30.245094,120.169937
38,浙江省,杭州市,上城区,浙江省杭州市上城区解放路251号杭州解百F1,中国移动手机卖场(杭州解百店),30.255327,120.172659
39,浙江省,杭州市,上城区,浙江省杭州市上城区杭海路193号四季鞋包城4楼,好四季鞋包服饰城,30.25284,120.202326
40,浙江省,杭州市,上城区,杭州市上城区解放东路258号中纺中心服装城F3,意米拉(中纺中心服装城店),30.254656,120.205024
41,浙江省,杭州市,上城区,浙江省杭州市上城区景昙路9号杭州大厦501城市广场F1,杭州大厦501城市广场-东4门,30.265329,120.210576
42,浙江省,杭州市,上城区,杭州市上城区杭海路238号森禾商务广场F1,森禾商务广场-停车场出入口,30.2599,120.213257
43,浙江省,杭州市,上城区,浙江省杭州市上城区景昙路9号杭州大厦501城市广场F1,杭州大厦501城市广场-南门,30.264921,120.210048
44,浙江省,杭州市,上城区,浙江省杭州市上城区庆春路169号,娃哈哈(美食城店),30.263597,120.175413
45,浙江省,杭州市,上城区,杭州市上城区解放东路258号中纺中心服装城F2,京天惠(中纺中心服装城店),30.254632,120.205315
46,浙江省,杭州市,上城区,浙江省杭州市上城区解放东路258号中纺中心a区4楼,米纳狮丹(中纺中心服装城店),30.254135,120.204918
47,浙江省,杭州市,上城区,浙江省杭州市上城区景昙路9号杭州大厦501城市广场F3,易读宝(杭州大厦501城市广场店),30.265656,120.210226
48,浙江省,杭州市,上城区,浙江省杭州市上城区景昙路9号杭州大厦501城市广场F2,MISS AN-DI BEAUTY(杭州大厦501城市广场店),30.266123,120.210049
49,浙江省,杭州市,上城区,杭州市上城区秋涛北路128号东部数码城F1,东部数码城-停车场出入口,30.274101,120.206962
50,浙江省,杭州市,上城区,浙江省杭州市上城区河坊街54号浙江石油非油中心,浙江石油非油中心,30.245663,120.181437
51,河南省,信阳市,商城县,美人岗路与金刚台大道交叉口西150米,世纪商城(美人岗路),31.818154,115.387082
52,河南省,信阳市,商城县,商城县金穗路南段198号,商城县京东家电旗舰店,31.808008,115.406517
53,河南省,信阳市,固始县,河南省信阳市固始县蓼北路,固始温州国际商城,32.184734,115.707148
54,河南省,信阳市,商城县,河南省信阳市商城县西车站旁边西亚丽宝广场手机城5层,小米授权体验店(西亚和美商城店),31.810276,115.408663
55,河南省,信阳市,商城县,信阳市商城县崇福大道锦绣商城迎宾馆北侧约30米,爱玛电动车(商城县专卖店),31.80877,115.411268
56,河南省,信阳市,商城县,河南省信阳市商城县黄柏山路居然之家三楼扶梯口,欧派橱柜商城尊贵馆,31.837867,115.405377
57,河南省,信阳市,固始县,秀水街道怡和大道(永和实验小学西南侧约50米),怡和义乌国际商城,32.135121,115.669824
58,河南省,信阳市,商城县,河南省信阳市商城县崇福大道中段国家电网对面,精益眼镜(商城一店),31.808124,115.4169
59,河南省,信阳市,商城县,信阳市商城县赤城路商城大厦南侧约130米,商城厨具大全(河南总店),31.801129,115.414689
60,河南省,信阳市,商城县,信阳市商城县金刚台大道雍华府B区附近,商城思源实验学校,31.819946,115.41899
61,河南省,信阳市,商城县,美人岗路与金刚台大道交叉口西150米,世纪商城(美人岗路),31.818154,115.387082
62,河南省,信阳市,商城县,商城县金穗路南段198号,商城县京东家电旗舰店,31.808008,115.406517
63,河南省,信阳市,固始县,河南省信阳市固始县蓼北路,固始温州国际商城,32.184734,115.707148
64,河南省,信阳市,商城县,河南省信阳市商城县西车站旁边西亚丽宝广场手机城5层,小米授权体验店(西亚和美商城店),31.810276,115.408663
65,河南省,信阳市,商城县,信阳市商城县崇福大道锦绣商城迎宾馆北侧约30米,爱玛电动车(商城县专卖店),31.80877,115.411268
66,河南省,信阳市,商城县,河南省信阳市商城县黄柏山路居然之家三楼扶梯口,欧派橱柜商城尊贵馆,31.837867,115.405377
67,河南省,信阳市,固始县,秀水街道怡和大道(永和实验小学西南侧约50米),怡和义乌国际商城,32.135121,115.669824
68,河南省,信阳市,商城县,河南省信阳市商城县崇福大道中段国家电网对面,精益眼镜(商城一店),31.808124,115.4169
69,河南省,信阳市,商城县,信阳市商城县赤城路商城大厦南侧约130米,商城厨具大全(河南总店),31.801129,115.414689
70,河南省,信阳市,商城县,信阳市商城县金刚台大道雍华府B区附近,商城思源实验学校,31.819946,115.41899
71,浙江省,杭州市,拱墅区,浙江省杭州市拱墅区大关路213号欧尚超市1楼,大润发超市(大关店),30.315744,120.155302
72,浙江省,杭州市,拱墅区,浙江省杭州市拱墅区杭行路666号万达广场B1,物美超市(万达广场拱墅店),30.336201,120.125193
73,浙江省,杭州市,拱墅区,浙江省杭州市拱墅区德胜路28号1楼,华润万家(杭州德胜店),30.306211,120.17956
74,浙江省,杭州市,拱墅区,浙江省杭州市拱墅区朝晖路142~144号,华润万家(朝晖店),30.284436,120.179503
75,浙江省,杭州市,拱墅区,浙江省杭州市拱墅区台州路2号运河上街购物中心B1,盒马鲜生(运河上街购物中心店),30.324904,120.14961
76,浙江省,杭州市,拱墅区,浙江省杭州市拱墅区石桥路399号,大润发(石桥店),30.348297,120.197564
77,浙江省,杭州市,拱墅区,浙江省杭州市拱墅区半山路78号,世纪联华(中联店),30.355956,120.191338
78,浙江省,杭州市,拱墅区,浙江省杭州市拱墅区丰庆路710号世纪联华一楼,联华超市(丰庆路店),30.335885,120.103235
79,浙江省,杭州市,拱墅区,浙江省杭州市拱墅区文一路20号云河大厦1楼,华润万家(云河店),30.296423,120.153872
80,浙江省,杭州市,拱墅区,浙江省杭州市拱墅区香积寺路162号1幢2楼,联华超市(香积寺路店),30.312783,120.173901
81,浙江省,杭州市,拱墅区,浙江省杭州市拱墅区沈半路166号,布丁酒店(沈半路大学城善贤地铁站店),30.32482,120.169898
82,浙江省,杭州市,拱墅区,浙江省杭州市拱墅区杭行路537号阅城新座1幢1楼,7天酒店(杭州万达广场店),30.338373,120.123328
83,浙江省,杭州市,拱墅区,杭州市拱墅区新市街93号,布丁酒店(浙江工业大学店),30.292867,120.173888
84,浙江省,杭州市,拱墅区,浙江省杭州市拱墅区湖墅南路28号,杭州JW万豪酒店,30.280674,120.163637
85,浙江省,杭州市,拱墅区,浙江省杭州市拱墅区星桥街,杭州城北瑞莱克斯大酒店,30.340171,120.124999
86,浙江省,杭州市,拱墅区,浙江省杭州市拱墅区朝晖路12号流水东苑西区11幢,如家酒店(朝晖路店),30.284234,120.19017
87,浙江省,杭州市,拱墅区,浙江省杭州市拱墅区金华路58号,杭州百瑞运河大饭店,30.323822,120.149383
88,浙江省,杭州市,拱墅区,浙江省杭州市拱墅区建国北路695号京都苑18幢,布丁严选酒店(打铁关地铁站店),30.282619,120.183634
89,浙江省,杭州市,拱墅区,浙江省杭州市拱墅区花园岗街景致公寓三幄3栋2楼,杭州元森泰青年旅舍,30.327683,120.121604
90,浙江省,杭州市,拱墅区,浙江省杭州市拱墅区华丰路160号,杭州华悦国际酒店,30.346939,120.211497
91,浙江省,杭州市,拱墅区,杭州市拱墅区小河直街51号,小河直街历史文化街区,30.313757,120.142541
92,浙江省,杭州市,拱墅区,浙江省杭州市拱墅区环城北路208号,京杭大运河杭州景区,30.281282,120.169281
93,浙江省,杭州市,拱墅区,杭州市拱墅区虎山路与青城路交叉口东北50米,仙人谷,30.367083,120.20705
94,浙江省,杭州市,拱墅区,浙江省杭州市拱墅区电厂路5号,康桥花海,30.370283,120.154785
95,浙江省,杭州市,拱墅区,杭州市拱墅区,望宸阁,30.365066,120.192594
96,浙江省,杭州市,拱墅区,杭州市拱墅区桥弄街1号,拱宸桥,30.324354,120.145892
97,浙江省,杭州市,拱墅区,杭州市拱墅区小河路与桥弄街交叉口东北50米,桥西历史文化街区,30.323518,120.14437
98,浙江省,杭州市,拱墅区,杭州市拱墅区武林门码头(环城北路208号坤和中心裙楼旁)京杭大运河内,拱宸桥公交码头,30.325327,120.146476
99,浙江省,杭州市,拱墅区,杭州市拱墅区半山路以北杭州半山国家森林公园内,千林流素,30.368104,120.19687
100,浙江省,杭州市,拱墅区,浙江省杭州市拱墅区环城北路208号武林门(水上巴士)码头,杭州钱塘江夜游,30.279759,120.168991
101,浙江省,杭州市,拱墅区,浙江省杭州市拱墅区上塘路456号,浙江钱江服装小商品市场,30.30877,120.16037
102,浙江省,杭州市,拱墅区,浙江省杭州市拱墅区石祥路589号,海外海杭州商城,30.333256,120.127962
103,浙江省,杭州市,拱墅区,浙江省杭州市拱墅区沈半路281号,杭州华力灯饰商城,30.339771,120.181317
104,浙江省,杭州市,拱墅区,浙江省杭州市拱墅区白石路318号海蓝财富中心1楼,亿科商城,30.321069,120.17265
105,浙江省,杭州市,拱墅区,浙江省杭州市拱墅区石祥路789号2幢一层101室,中国杭州路顺电动车批发商城,30.328714,120.116331
106,浙江省,杭州市,拱墅区,浙江省杭州市拱墅区上塘路386号,海外海通信O2O商城,30.304935,120.163213
107,浙江省,杭州市,拱墅区,杭州市拱墅区杭行路海外海纳川大酒店西南侧约30米,海外海杭州商城,30.332149,120.125917
108,浙江省,杭州市,拱墅区,浙江省杭州市拱墅区上塘路386号,北门通信商城,30.304914,120.163123
109,浙江省,杭州市,拱墅区,浙江省杭州市拱墅区上塘路386号杭州海外海通信大厦商城,海外海通信O2O商城A区,30.305,120.163181
110,浙江省,杭州市,拱墅区,杭州市拱墅区胜利闸路杭州海外海通信大厦东侧,通信商城C区,30.305274,120.164019
111,浙江省,杭州市,拱墅区,浙江省杭州市拱墅区山前直路6号,十二生肖广场,30.360086,120.195883
112,浙江省,杭州市,拱墅区,杭州市拱墅区长浜路中大银泰城,中大银泰城-7号楼,30.33398,120.184033
113,浙江省,杭州市,拱墅区,杭州市拱墅区石桥路永富大厦,开瑞餐饮娱乐生活广场,30.348233,120.197291
114,浙江省,杭州市,拱墅区,杭州市拱墅区莫干山路1413号,海翔加油站,30.343739,120.105153
115,浙江省,杭州市,拱墅区,浙江省杭州市拱墅区临丁路2002号,中国石化加油加气站(临丁路站),30.356066,120.205934
116,浙江省,杭州市,拱墅区,杭州市拱墅区绍兴支路1号,东恒石油,30.285446,120.186955
117,浙江省,杭州市,拱墅区,浙江省杭州市拱墅区莫干山路708号,金投能源加油站,30.319085,120.123079
118,浙江省,杭州市,拱墅区,杭州市拱墅区德胜中路417号,东新加油站(德胜快速路入口店)停车场,30.30823,120.188328
119,浙江省,杭州市,西湖区,浙江省杭州市西湖区古墩路588号印象城F3,沃尔玛购物广场(印象城古墩路店),30.299921,120.105952
120,浙江省,杭州市,西湖区,浙江省杭州市西湖区余杭塘路与弘德路交叉口,永辉超市(西溪银泰城店),30.298771,120.08272
121,浙江省,杭州市,西湖区,浙江省杭州市西湖区洙泗路113号金街美地1楼,永辉超市(杭新店),30.153206,120.085377
122,浙江省,杭州市,西湖区,浙江省杭州市西湖区美院南街89号,华润万家(转塘店),30.156301,120.086402
123,浙江省,杭州市,西湖区,浙江省杭州市西湖区留下镇留下街118号,联华超市(西溪路店),30.248541,120.060707
124,浙江省,杭州市,西湖区,浙江省杭州市西湖区转塘镇江口218号江口大厦1~3层,联华超市(转塘江口店),30.169487,120.088556
125,浙江省,杭州市,西湖区,浙江省杭州市西湖区文一路122号,物美大卖场(文一路2店),30.295301,120.142843
126,浙江省,杭州市,西湖区,浙江省杭州市西湖区文一路298号,物美大卖场(文一店),30.294434,120.128678
127,浙江省,杭州市,西湖区,浙江省杭州市西湖区西溪路16号,联华超市(杭州松木场店),30.274364,120.152464
128,浙江省,杭州市,西湖区,杭州市西湖区留下街道留和家苑6幢9号,世纪华联超市(留下店),30.243319,120.060801
129,浙江省,杭州市,西湖区,浙江省杭州市西湖区文一西路180号,布丁酒店(文新地铁站店),30.293002,120.107874
130,浙江省,杭州市,西湖区,浙江省杭州市西湖区文二路28号,如家商旅酒店(杭州文二路沈塘桥地铁站店),30.28992,120.152456
131,浙江省,杭州市,西湖区,浙江省杭州市西湖区紫金港路21号,丽呈布鲁克酒店(杭州西溪天堂),30.272033,120.096142
132,浙江省,杭州市,西湖区,浙江省杭州市西湖区莫干山路511号,杭州梅苑宾馆,30.293954,120.151189
133,浙江省,杭州市,西湖区,浙江省杭州市西湖区古墩路541号,汉庭酒店(杭州文新地铁站店),30.296398,120.104079
134,浙江省,杭州市,西湖区,浙江省杭州市西湖区灯彩街565号,杭州两岸国际大酒店,30.328302,120.075526
135,浙江省,杭州市,西湖区,浙江省杭州市西湖区天目山路325号,如家酒店(天目山路西溪店),30.26966,120.106415
136,浙江省,杭州市,西湖区,浙江省杭州市西湖区黄姑山路23号,桔子精选酒店(黄龙体育中心店),30.281323,120.139672
137,浙江省,杭州市,西湖区,浙江省杭州市西湖区留下镇百家园路128号,杭州启航国际大酒店,30.254976,120.068015
138,浙江省,杭州市,西湖区,浙江省杭州市西湖区保俶路150号,如家·neo(保俶路店),30.272588,120.154593
139,浙江省,杭州市,西湖区,浙江省杭州市西湖区龙井路1号,西湖风景区,30.228932,120.12792
140,浙江省,杭州市,西湖区,浙江省杭州市西湖区之江路148号,宋城,30.175794,120.105381
141,浙江省,杭州市,西湖区,浙江省杭州市西湖区天目山路518号,西溪国家湿地公园,30.27289,120.071528
142,浙江省,杭州市,西湖区,杭州市西湖区三台山杨公堤17号(龙井路口),茅家埠景区,30.245932,120.132183
143,浙江省,杭州市,西湖区,浙江省杭州市西湖区白马山庄花语轩西侧,杭州宝寿山景区,30.223611,120.017041
144,浙江省,杭州市,西湖区,浙江省杭州市西湖区梅灵南路,云栖竹径景区,30.197803,120.097373
145,浙江省,杭州市,西湖区,浙江省杭州市西湖区三台山路赤山埠29号,浴鹄湾,30.232267,120.142678
146,浙江省,杭州市,西湖区,杭州市西湖区北山街与保俶塔前山路交叉路口往东约200米(西湖风景区),杭州西湖风景名胜区-断桥残雪,30.264062,120.157776
147,浙江省,杭州市,西湖区,杭州市西湖区清谷路999号,杭州西湖风景名胜区-大清谷,30.200216,120.076695
148,浙江省,杭州市,西湖区,杭州市西湖区龙井村南九溪十八涧尽头(近九溪路),九溪烟树,30.208949,120.119643
149,浙江省,杭州市,西湖区,杭州市西湖区转塘里街68号,之江购物商厦,30.167267,120.084971
150,浙江省,杭州市,西湖区,浙江省杭州市西湖区紫霞街176号d座9楼,尚坤紫枫商城,30.295587,120.072745
151,浙江省,杭州市,西湖区,浙江省杭州市西湖区古墩路685号,店招邦广告五金商城,30.309719,120.103679
152,浙江省,杭州市,西湖区,浙江省杭州市西湖区转塘里街68号之江购物商厦负一楼31号,RELX悦刻专卖店(之江购物商厦店),30.167265,120.084735
153,浙江省,杭州市,西湖区,浙江杭州市西湖区翠柏路7号,物本购商城,30.297382,120.132528
154,浙江省,杭州市,西湖区,杭州市西湖区转塘里街68号之江购物商厦B1,倪何文体(之江购物商厦店),30.167368,120.084823
155,浙江省,杭州市,西湖区,杭州市西湖区转塘里街68号之江购物商厦F1,足下登专卖(之江购物商厦店),30.166998,120.085585
156,浙江省,杭州市,西湖区,杭州市西湖区转塘里街68号之江购物商厦F1,女装店(之江购物商厦店),30.167296,120.085155
157,浙江省,杭州市,西湖区,杭州市西湖区转塘里街68号之江购物商厦B1,内衣店(之江购物商厦店),30.167228,120.085118
158,浙江省,杭州市,西湖区,杭州市西湖区转塘里街68号之江购物商厦F2,棒棒糖(之江购物商厦店),30.16727,120.085165
159,浙江省,杭州市,西湖区,杭州市西湖区北山街,少年宫广场,30.266776,120.162
160,浙江省,杭州市,西湖区,浙江省杭州市西湖区文三路508号天苑大厦星光城F1星光城F1,星光城,30.283198,120.127404
161,浙江省,杭州市,西湖区,杭州市西湖区绿城黄龙世纪广场-B座附近,绿城黄龙世纪广场-B座-接送点,30.273824,120.147911
162,浙江省,杭州市,西湖区,浙江省杭州市西湖区弥陀寺路10号,省府加油站,30.272237,120.15611
163,浙江省,杭州市,西湖区,浙江省杭州市西湖区文三路500号,中国石化(文三路加油站),30.282973,120.128496
164,浙江省,杭州市,西湖区,浙江省杭州市西湖区庙山东村28号,金投能源有限公司转塘加油站,30.169268,120.087936
165,浙江省,杭州市,西湖区,浙江省杭州市西湖区龙坞镇留转线与留泗路交叉路口,杭州石油唐家桥加油站,30.188193,120.067266
166,浙江省,杭州市,西湖区,浙江省杭州市西湖区留和路98号,中国石油(留和路加油站),30.233952,120.053811
167,浙江省,杭州市,西湖区,浙江省杭州市西湖区之江路36号,之江石化加油站,30.185339,120.11642
168,浙江省,杭州市,西湖区,之江路218号,金投能源,30.169248,120.087876
169,浙江省,杭州市,滨江区,浙江省杭州市滨江区江晖路1276号中赢国际商务大厦B1层,世纪联华(中赢国际广场店),30.206448,120.217193
170,浙江省,杭州市,滨江区,浙江省杭州市滨江区滨盛路1766号二期b1层,盒马鲜生(华联·星光大道二期南区店),30.21593,120.213782
171,浙江省,杭州市,滨江区,浙江省杭州市滨江区浦沿街道东冠路611号金盛嘉悦广场二楼,永辉超市(金盛嘉悦店),30.167506,120.161953
172,浙江省,杭州市,滨江区,浙江省杭州市滨江区江南大道228号负1楼,物美超市(星光大道店),30.21353,120.215297
173,浙江省,杭州市,滨江区,浙江省杭州市滨江区滨盛路2239号,联华超市(滨盛路店),30.208074,120.200958
174,浙江省,杭州市,滨江区,浙江省杭州市滨江区滨盛路4396号,联华超市(都市生活杭州彩虹城店),30.193417,120.16332
175,浙江省,杭州市,滨江区,杭州市滨江区西兴街道缤纷小区商铺76号,华联超市(缤纷店),30.223019,120.230347
176,浙江省,杭州市,滨江区,杭州市滨江区江陵路336号,联华超市(江陵路店),30.189712,120.22526
177,浙江省,杭州市,滨江区,浙江省杭州市滨江区六和路365号贺田尚城一区,联华超市(杭州贺田尚城店),30.186923,120.144436
178,浙江省,杭州市,滨江区,浙江省杭州市滨江区滨盛路3191号恒丰七彩城九区2楼,世纪华联超市(仁苑店),30.196967,120.183126
179,浙江省,杭州市,滨江区,浙江省杭州市滨江区长江南路336号678幢,杭州白马湖建国饭店,30.1675,120.210047
180,浙江省,杭州市,滨江区,浙江省杭州市滨江区长河街道滨康路315号,汉庭酒店(杭州聚才路地铁站店),30.186587,120.20273
181,浙江省,杭州市,滨江区,浙江省杭州市滨江区网商路272号,杭州蓝臣大酒店,30.18926,120.20047
182,浙江省,杭州市,滨江区,浙江省杭州市滨江区东冠路611号,锦江之星品尚(杭州滨江大学城店),30.166643,120.161657
183,浙江省,杭州市,滨江区,浙江省杭州市滨江区江南大道4252知本大厦A3幢,梦居商务酒店,30.189606,120.160772
184,浙江省,杭州市,滨江区,浙江省杭州市滨江区江陵路2028号星耀城一期3幢,桔子水晶酒店(江陵路地铁站店),30.218915,120.222184
185,浙江省,杭州市,滨江区,浙江省杭州市滨江区同人路25号,青尚快捷酒店,30.208437,120.199287
186,浙江省,杭州市,滨江区,浙江省杭州市滨江区西浦路1569号,汉庭怡莱酒店(杭州滨江东信大道店),30.181694,120.140853
187,浙江省,杭州市,滨江区,浙江省杭州市滨江区浦沿路773号江南商业大厦2幢,汉庭酒店(滨文路店),30.17822,120.152224
188,浙江省,杭州市,滨江区,浙江省杭州市滨江区江南大道88号中化蓝天大厦B座1楼,全季酒店(江陵路地铁站店),30.215078,120.221188
189,浙江省,杭州市,滨江区,闻涛路,滨江最美樱花跑道,30.197464,120.156407
190,浙江省,杭州市,滨江区,真经路,冠山,30.16858,120.192581
191,浙江省,杭州市,滨江区,杭州市滨江区风情大道2758号浙江湘湖旅游度假区内,杨堤,30.147023,120.225185
192,浙江省,杭州市,滨江区,浙江省杭州市滨江区长河街道塘子堰路159号,笨鸟的第1个园区,30.159773,120.210765
193,浙江省,杭州市,滨江区,浙江省杭州市滨江区湘湖旅游度假区内狮子山停车场旁,越女舫,30.146364,120.222927
194,浙江省,杭州市,滨江区,杭州市滨江区滨康路105号,杭州国城长城,30.187478,120.226524
195,浙江省,杭州市,滨江区,杭州市滨江区风情大道2758号浙江湘湖旅游度假区内,湘湖国家旅游度假区-凌云亭,30.157352,120.226941
196,浙江省,杭州市,滨江区,浙江省杭州市滨江区滨安路1168号施强广场8幢1层喜士多便利店内,麓隐花野,30.191844,120.189375
197,浙江省,杭州市,滨江区,杭州市滨江区湘湖路132号湘湖国家级旅游度假区内,迎妃桥,30.145016,120.21722
198,浙江省,杭州市,滨江区,杭州市滨江区越王路湘湖旅游度假区,乐水亭,30.146213,120.22265
199,浙江省,杭州市,滨江区,杭州市滨江区江南大道1090号,中南国际商城,30.202085,120.195547
200,浙江省,杭州市,滨江区,浙江省杭州市滨江区长河街道长江路432号,宝莲灯母婴用品(长河商厦店),30.174883,120.202825
201,浙江省,杭州市,滨江区,浙江杭州市滨江区科技馆街凯瑞金座1607号,微来购,30.213981,120.208199
202,浙江省,杭州市,滨江区,杭州市滨江区长河街道江南大道1090号中南国际商城5幢108室,家友超市(中南国际商城店),30.201054,120.199432
203,浙江省,杭州市,滨江区,杭州市滨江区江南大道1090号中南国际商城F2,金牌厨柜(中南国际商城店),30.202294,120.194087
204,浙江省,杭州市,滨江区,浙江省杭州市滨江区江南大道1088号第六空间国际家居馆3楼,圣蒂斯堡新古典(大都会家居博览园凡尔赛宫中南国际商城店),30.203409,120.198079
205,浙江省,杭州市,滨江区,浙江省杭州市滨江区江南大道1088号,摩恩(中南国际商城西),30.201629,120.193936
206,浙江省,杭州市,滨江区,杭州市滨江区江南大道228号,星光国际广场,30.214175,120.215192
207,浙江省,杭州市,滨江区,浙江杭州市滨江区江陵路2028号星耀城一期3幢,杭州太平洋影城(星耀城店),30.218644,120.221612
208,浙江省,杭州市,滨江区,浙江省杭州市滨江区江晖路1276号中赢国际商务大厦B1层,世纪联华(中赢国际广场店),30.206448,120.217193
209,浙江省,杭州市,滨江区,浙江省杭州市滨江区江陵路2028号,兴耀·星耀城-1期,30.219671,120.22133
210,浙江省,杭州市,滨江区,杭州市滨江区江南大道228号,星光国际广场-首座,30.214436,120.214567
211,浙江省,杭州市,滨江区,杭州市滨江区奥运路与扬帆路交叉口东北米,绿地旭辉城-东南门,30.229901,120.23627
212,浙江省,杭州市,滨江区,杭州市滨江区长河路475号,杭州和瑞国际科技广场-东门,30.191224,120.202718
213,浙江省,杭州市,滨江区,闻涛路与飞虹路交叉口东北150米,杭州奥体博览城-停车场,30.236922,120.23103
214,浙江省,杭州市,滨江区,浙江省杭州市滨江区江南大道228号,星光国际广场-上座,30.213134,120.215232
215,浙江省,杭州市,滨江区,杭州市滨江区江南大道228号星光国际广场B2,星光国际广场-停车场,30.213541,120.215749
216,浙江省,杭州市,滨江区,浙江省杭州市滨江区江南大道7区1号,江三加油站,30.198103,120.188972
217,浙江省,杭州市,萧山区,浙江省杭州市萧山区建设一路与金鸡路交汇处西北侧萧山宝龙广场F1,永辉超市(萧山宝龙广场店),30.202165,120.259999
218,浙江省,杭州市,萧山区,浙江省杭州市萧山区萧绍路702号华润万家b座写字楼1楼,华润万家(萧山店),30.170641,120.290993
219,浙江省,杭州市,萧山区,杭州市萧山区萧然东路76-78号,世纪联华(萧然东路店),30.16953,120.281962
220,浙江省,杭州市,萧山区,浙江省杭州市萧山区商城南路287号东店,汇德隆家电超市(城东店),30.164397,120.298951
221,浙江省,杭州市,萧山区,杭州市萧山区商贸街188-216号,华联超市(靖江店),30.238762,120.474295
222,浙江省,杭州市,萧山区,浙江省杭州市萧山区黄公楼公交站东南(方党线南),世纪华联超市(黄公溇店),30.178549,120.480544
223,浙江省,杭州市,萧山区,浙江省杭州市萧山区镇中路7号,杭州华联生活超市(镇中路店),30.218932,120.547214
224,浙江省,杭州市,萧山区,浙江省杭州市萧山区南虹路389号,好又多(南阳店),30.267484,120.456455
225,浙江省,杭州市,萧山区,浙江省杭州市萧山区市心北路895号港汇中心,品惠超市(市心北路店),30.226827,120.274588
226,浙江省,杭州市,萧山区,浙江省杭州市萧山区南大路208号,杭州华联超市(南大路店),30.184106,120.3852
227,浙江省,杭州市,萧山区,浙江省杭州市萧山区永盛路355号8组,维也纳3好酒店(萧山机场航站楼店),30.245826,120.464077
228,浙江省,杭州市,萧山区,浙江省杭州市萧山区金城路451号,如家酒店(万象汇人民广场地铁站店),30.188214,120.264025
229,浙江省,杭州市,萧山区,浙江省杭州市万丰五金机电市场218号,怡尚宾馆(杭州南站店),30.178838,120.29972
230,浙江省,杭州市,萧山区,浙江省杭州市萧山区市心南路117号,百时快捷酒店(杭州乐园店),30.168118,120.274124
231,浙江省,杭州市,萧山区,浙江省杭州市萧山区滨康路59号,维也纳酒店(杭州滨康路地铁站店),30.186884,120.233425
232,浙江省,杭州市,萧山区,浙江省杭州市萧山区通惠南路267号(近萧山汽车东站),杭州萧山蓝天宾馆(大通路店),30.159925,120.296197
233,浙江省,杭州市,萧山区,浙江省杭州市萧山区弘慧路399号,浙江广电开元名都大酒店(弘慧路店),30.255662,120.301835
234,浙江省,杭州市,萧山区,浙江省杭州市萧山区博奥路2085号,合丰商务酒店,30.22678,120.250029
235,浙江省,杭州市,萧山区,浙江省杭州市萧山区通惠中路695号,如家酒店·neo(杭州萧山火车南站通惠中路地铁站店),30.184829,120.291141
236,浙江省,杭州市,萧山区,杭州市萧山区建设四路与众安路交汇处东南角,7天连锁酒店(杭州萧山国际机场西大门店),30.20324,120.410841
237,浙江省,杭州市,萧山区,杭州市萧山区风情大道2758号,湘湖国家旅游度假区,30.136275,120.221555
238,浙江省,杭州市,萧山区,杭州市萧山区风情大道2555号,杭州乐园旅游区,30.167226,120.251329
239,浙江省,杭州市,萧山区,浙江省杭州市萧山区湘湖路777号,杭州长乔极地海洋公园,30.148596,120.233009
240,浙江省,杭州市,萧山区,杭州市萧山区义桥镇时代大道,杭州东方文化园,30.108196,120.204897
241,浙江省,杭州市,萧山区,杭州市萧山区越王路108号浙江省湘湖旅游度假区内,下孙文化村风景区,30.163102,120.240744
242,浙江省,杭州市,萧山区,杭州市萧山区亚太路附近,湘湖花海,30.123477,120.228012
243,浙江省,杭州市,萧山区,浙江省杭州市萧山区阳城路1号,美女坝,30.266569,120.398692
244,浙江省,杭州市,萧山区,杭州市萧山区风情大道2758号浙江湘湖旅游度假区城山内,越王城山,30.157725,120.236234
245,浙江省,杭州市,萧山区,杭州市萧山区戴村镇,戴村仙女湖,30.019674,120.18617
246,浙江省,杭州市,萧山区,杭州市萧山区戴村镇亿年火山遗址,火山云石景区,29.970648,120.128502
247,浙江省,杭州市,萧山区,杭州市萧山区靖江街道青六南路1111号空港新天地F2,空港新天地,30.241784,120.479415
248,浙江省,杭州市,萧山区,浙江省杭州市萧山区S103省道和苎萝路交叉口,临浦潮人汇商厦,30.057122,120.249829
249,浙江省,杭州市,萧山区,浙江省杭州市萧山区市心南路40号二期3楼,华联商厦(市心南路店),30.169957,120.273795
250,浙江省,杭州市,萧山区,城红线光明农贸市场对面,惠友商场(梅仙店),30.220078,120.403215
251,浙江省,杭州市,萧山区,浙江省杭州市萧山区商城中路1-92号,天天烟酒商行(商城中路店),30.173041,120.298334
252,浙江省,杭州市,萧山区,浙江省杭州市萧山区商城中路133号,婷婷服饰(商城中路店),30.172595,120.297896
253,浙江省,杭州市,萧山区,杭州市萧山区商城西路127号,美的电器(商城西路店),30.172143,120.295861
254,浙江省,杭州市,萧山区,杭州市萧山区商城南路融创·融望之城东南侧约90米,商城超市,30.148598,120.298164
255,浙江省,杭州市,萧山区,商城西路171-1号2楼,商城酒店用品卖场,30.172869,120.295781
256,浙江省,杭州市,萧山区,浙江省杭州市萧山区S103省道和苎萝路交叉口临浦潮人汇商厦F1,悠百佳量版零食连锁(临浦潮人汇商厦店),30.057417,120.250041
257,浙江省,杭州市,萧山区,杭州市萧山区商业城建材市场1区75号,萧山商业城,30.169996,120.297781
258,浙江省,杭州市,萧山区,浙江省杭州市萧山区衙前镇衙前路1号,中国纺织采购博览城,30.137966,120.414679
259,浙江省,杭州市,萧山区,浙江省杭州市萧山区建设一路与金鸡路交汇处西北侧萧山宝龙广场F1,永辉超市(萧山宝龙广场店),30.202165,120.259999
260,浙江省,杭州市,萧山区,杭州市萧山区东升路中国海油虹欣加油站东北侧约150米,中栋国际花木城,30.194618,120.426807
261,浙江省,杭州市,萧山区,杭州市萧山区明星路73号,青秀城-东门,30.199418,120.255377
262,浙江省,杭州市,萧山区,浙江省杭州市萧山区建设一路418号,青秀城-北门,30.200448,120.254209
263,浙江省,杭州市,萧山区,杭州市萧山区花卉大道与迎春路交叉口东南50米,浙江(中国)花木城-南门,30.181429,120.342243
264,浙江省,杭州市,萧山区,杭州市萧山区市心北路818号(市心北路与利华路交叉口),江南明城·金座,30.224312,120.276408
265,浙江省,杭州市,萧山区,浙江省杭州市萧山区文明路1212号,佳丰南苑-西门,30.221311,120.241876
266,浙江省,杭州市,萧山区,通惠中路838号,中誉·现代城,30.190235,120.293446
267,浙江省,杭州市,萧山区,杭州市萧山区奔竞大道旭辉奥体都会山,利一加油站,30.23858,120.251899
268,浙江省,杭州市,萧山区,浙江省杭州市萧山区时代大道2853号,中国石油加油站(湘西路),30.151139,120.189984
269,浙江省,杭州市,萧山区,浙江省杭州市萧山区时代大道6059号,中国石油,30.098357,120.197327
270,浙江省,杭州市,萧山区,浙江省杭州市萧山区三益线,中国国际能源加油站(益农站),30.187079,120.560368
271,浙江省,杭州市,萧山区,浙江省杭州市萧山区萧杭路1377号,杭艺加油站,30.187719,120.244689
272,浙江省,杭州市,萧山区,浙江省杭州市萧山区金鸡路,金盾加油站,30.21683,120.261154
273,浙江省,杭州市,萧山区,浙江省杭州市萧山区衙前镇衙前路493号,德国大众集团加油站,30.169119,120.386124
274,浙江省,杭州市,萧山区,杭州市萧山区坎红线附近,天发石油加油站,30.215008,120.402833
275,浙江省,杭州市,萧山区,浙江省杭州市萧山区X120辅路,中国石油加油站(许贤站),30.063444,120.188513
276,浙江省,杭州市,萧山区,杭州市萧山区红垦农场红垦路495号,中国石化(杭红加油站),30.234853,120.355513
277,浙江省,杭州市,余杭区,杭州市余杭区文一西路961号亲橙里购物中心B1,盒马鲜生(亲橙里购物中心店),30.287442,120.036341
278,浙江省,杭州市,余杭区,浙江省杭州市余杭区天目山西路雨润发超市c区1楼,雨润发连锁超市(五常店),30.243398,120.040033
279,浙江省,杭州市,余杭区,杭州市余杭区五常大道421号西溪欢乐城F2,物美超市(西溪欢乐城店),30.24677,120.018556
280,浙江省,杭州市,余杭区,浙江省杭州市余杭区祥运路航行金座1幢B1层01号,盒马鲜生(杭行路店),30.344279,120.123977
281,浙江省,杭州市,余杭区,浙江省杭州市余杭区闲林中路190号,苏杭情超市(闲林店),30.227521,119.992972
282,浙江省,杭州市,余杭区,杭州市余杭区莫干山路1509号西田城购物中心B1,永辉超市(西田城购物中心店),30.347281,120.101729
283,浙江省,杭州市,余杭区,浙江省杭州市余杭区莫干山路1459号二期,麦德龙(金家渡商场),30.345965,120.102339
284,浙江省,杭州市,余杭区,中泰街道石鸽路129、131号,世纪联华超市(城南路店),30.262444,119.956366
285,浙江省,杭州市,余杭区,浙江省杭州市余杭区海曙路1号吉卖隆超市新农都1楼,新农都吉卖隆超市,30.285696,119.995793
286,浙江省,杭州市,余杭区,浙江省杭州市余杭区宝林路126号西区,久久城市生活超市(宝林路连锁超市),30.273041,119.946644
287,浙江省,杭州市,余杭区,浙江省杭州市余杭区向往街三维智汇中心pa1幢,桔子水晶酒店(未来科技城店),30.291844,120.022635
288,浙江省,杭州市,余杭区,浙江省杭州市余杭区文一西路1378号1幢,麦家酒店,30.281333,119.994954
289,浙江省,杭州市,余杭区,杭州市余杭区杭行路1025号,杭州运河希尔顿欢朋酒店,30.345289,120.122191
290,浙江省,杭州市,余杭区,浙江省杭州市余杭区余杭塘路1299号瑞谷中心pa7幢,桔子酒店(杭州未来科技城杭师大店),30.29335,120.019681
291,浙江省,杭州市,余杭区,浙江省杭州市余杭区余杭塘路与绿汀路交叉口尚未来城北楼内,维也纳国际酒店(杭州火车西站店),30.286247,119.995439
292,浙江省,杭州市,余杭区,浙江省杭州市余杭区莫干山路2116号,斯图亚特尊享酒店,30.378784,120.06518
293,浙江省,杭州市,余杭区,浙江省杭州市余杭区好运路193号,如家酒店(好运路店),30.35514,120.125508
294,浙江省,杭州市,余杭区,浙江省杭州市余杭区天目山路516号西溪雅苑东区110-111幢4楼,杭州象牙客青年旅舍(西溪店),30.250101,120.057816
295,浙江省,杭州市,余杭区,浙江省杭州市余杭区高教路1幢2单元,杭州君庭轻居公寓式酒店(阿里巴巴海创园店),30.285112,120.026309
296,浙江省,杭州市,余杭区,浙江省杭州市余杭区文一西路富力天贸广场海创园26幢,杭州未来科技城海创园亚朵酒店,30.288965,120.034424
297,浙江省,杭州市,余杭区,浙江省杭州市余杭区鸬鸟镇太平山沟沟村下余65号,山沟沟景区,30.429456,119.717475
298,浙江省,杭州市,余杭区,杭州市余杭区径山镇龙皇路99号,径山花海,30.386436,119.867892
299,浙江省,杭州市,余杭区,浙江省杭州市余杭区径山镇双溪竹海路7号,双溪竹海漂流景区,30.406617,119.844556
300,浙江省,杭州市,余杭区,浙江省杭州市余杭区山沟沟旅游区汤坑景区(后汤线南),汤坑景区,30.427269,119.707489
301,浙江省,杭州市,余杭区,浙江省杭州市余杭区东西大道南187号,薰衣草庄园,30.243785,119.965042
302,浙江省,杭州市,余杭区,鸬鸟镇凌村坞,彩虹谷,30.407502,119.734197
303,浙江省,杭州市,余杭区,浙江省杭州市余杭区余杭镇,大禹谷,30.313055,119.872654
304,浙江省,杭州市,余杭区,浙江省杭州市余杭区径山古道(长径线西),径山古道,30.387892,119.786623
305,浙江省,杭州市,余杭区,浙江省杭州市余杭区良渚街道良安路118号,中国院子(梦溪园),30.410166,120.058453
306,浙江省,杭州市,余杭区,余杭区北50公里处,径山,30.386806,119.769021
307,浙江省,杭州市,余杭区,浙江省杭州市余杭区新窑路10幢3单元,瓶窑五彩商城,30.399209,119.982663
308,浙江省,杭州市,余杭区,浙江省杭州市临平区博园路1号西区3楼,杭州文化商城,30.380662,120.113651
309,浙江省,杭州市,余杭区,浙江省杭州市余杭区好运路86号,诚信电脑商城(好运街店),30.354845,120.124226
310,浙江省,杭州市,余杭区,杭州市余杭区良博路良渚花苑-南区,创凡商城超市,30.383851,120.061657
311,浙江省,杭州市,余杭区,浙江省杭州市余杭区禹航路994号,小芳超市(商城店),30.279406,119.949016
312,浙江省,杭州市,余杭区,余杭街道禹航商城4号楼4-5,女主角私人衣橱(禹航商城店),30.278689,119.948461
313,浙江省,杭州市,余杭区,杭州市余杭区莫干山路1509号西田城购物中心B1,永辉超市(西田城购物中心店),30.347281,120.101729
314,浙江省,杭州市,余杭区,浙江省杭州市余杭区瓶仓大道2号嘉凯城城市客厅九号3楼,嘉凯城·城市客厅,30.384444,119.979437
315,浙江省,杭州市,余杭区,浙江省杭州市余杭区古墩路1888号永旺梦乐城B1,永旺梦乐城(杭州良渚新城店)-停车场,30.36691,120.064272
316,浙江省,杭州市,余杭区,杭州市余杭区棕榈路与逸盛路交叉口西50米,赞成赞城-东1门,30.384476,120.110984
317,浙江省,杭州市,余杭区,杭州市余杭区天目山西路东海·闲湖城东门,东海闲湖城-东门,30.238192,120.001492
318,浙江省,杭州市,余杭区,浙江省杭州市余杭区恒厚阳光城西门(石鸽路),阳光城-西南门,30.246294,119.941549
319,浙江省,杭州市,余杭区,浙江省杭州市余杭区仓前街道欧美金融城5栋美国中心北楼,欧美金融城t5美国中心,30.288284,120.009034
320,浙江省,杭州市,余杭区,浙江省杭州市余杭区农副产品物流园区内逸盛路183号逸居城,逸居城-北2门,30.389307,120.122365
321,浙江省,杭州市,余杭区,杭州市余杭区五常大道153号乐天城F1乐天城B1,乐天城-停车场,30.250788,120.045353
322,浙江省,杭州市,余杭区,杭州市余杭区五常大道325号,翡翠城小区东南区-北门,30.248933,120.027904
323,浙江省,杭州市,余杭区,浙江省杭州市余杭区良上线,中国石油(连具塘双龙加油站),30.347707,119.982856
324,浙江省,杭州市,余杭区,浙江省杭州市余杭区新庵前4号,杭州石油(舟枕加油站),30.302162,119.903987
325,浙江省,杭州市,余杭区,浙江省杭州市余杭区后木桥50号,中国石化(余杭胡林加油站),30.290977,119.976304
326,浙江省,杭州市,余杭区,浙江省杭州市余杭区中泰乡中泰路2号,中国石油(中泰加油站),30.24367,119.929691
327,浙江省,杭州市,余杭区,浙江省杭州市余杭区S207,中国石油加油站(求是站),30.376384,119.886777
328,浙江省,杭州市,余杭区,浙江省杭州市余杭区径山服务区,中国石化(径山服务区南区加油站),30.407082,119.873489
329,浙江省,杭州市,余杭区,浙江省杭州市余杭区莫干山路2093号,中国石油(余杭第三加油站),30.375745,120.069806
330,浙江省,杭州市,余杭区,浙江省杭州市余杭区杭长高速公路径山服务区北区,中国石化(径山服务区北区加油站),30.408437,119.872074
331,浙江省,杭州市,余杭区,浙江省杭州市余杭区长乐大桥与彭凤线交叉口向东50米路南,中国石油加油站,30.339834,119.87038
332,浙江省,杭州市,余杭区,浙江省杭州市余杭区大桥路1号,宏生加油站(大桥路),30.399731,119.984873
333,浙江省,杭州市,富阳区,浙江省杭州市富阳区孙权路209号1楼,大润发(富阳店),30.057869,119.946384
334,浙江省,杭州市,富阳区,杭州市富阳区金桥北路1号东方茂购物中心F3,沃尔玛购物广场(东方茂购物中心店),30.053908,119.938591
335,浙江省,杭州市,富阳区,浙江省杭州市富阳区春秋北路271号玉长城商业广场负一楼,联华超市(玉长城商业广场春秋北路店),30.065654,119.948303
336,浙江省,杭州市,富阳区,浙江省杭州市富阳区桂花西路86号新世纪大厦1层,联华超市(新世纪店),30.054172,119.951775
337,浙江省,杭州市,富阳区,浙江省杭州市富阳区高桥东路35号百润超市2楼,百润生活超市(高桥东路店),30.100642,119.947996
338,浙江省,杭州市,富阳区,杭州市富阳区东山村二路8号,孙辉副食品超市,30.081293,119.95639
339,浙江省,杭州市,富阳区,文居街1001号富阳宝龙广场F1,华联超市(富阳宝龙广场店),30.062877,119.927817
340,浙江省,杭州市,富阳区,浙江省杭州市富阳区达夫路118号,联华超市(市心店),30.055335,119.965932
341,浙江省,杭州市,富阳区,浙江省杭州市富阳区新登镇登城南路30号,世纪联华(新登登城店),29.970663,119.744249
342,浙江省,杭州市,富阳区,浙江省杭州市富阳区富春街道巨利路11号,微笑超市(巨利路店),30.075804,119.948733
343,浙江省,杭州市,富阳区,浙江省杭州市富阳区东洲街道齐家沙152号齐家沙一楼,杭州潇尚商务酒店,30.062923,120.058321
344,浙江省,杭州市,富阳区,杭州市富阳区金桥北路1号东方茂F1,富阳东方茂开元名都大酒店,30.055096,119.939828
345,浙江省,杭州市,富阳区,浙江省杭州市富阳区江滨西大道56号,富阳国际贸易中心大酒店,30.047003,119.954587
346,浙江省,杭州市,富阳区,浙江省杭州市富阳区富春街道凤浦路217号,泊金湾宾馆,30.058691,119.938041
347,浙江省,杭州市,富阳区,浙江省杭州市富阳区鹿山街道依江路488号,杭州富阳瑞莱克斯大酒店(依江路店),30.016249,119.934835
348,浙江省,杭州市,富阳区,浙江省杭州市富阳区孙权路8号,汉庭酒店(富阳客运中心店),30.064287,119.956348
349,浙江省,杭州市,富阳区,浙江省杭州市富阳区富闲路15号3幢,汉庭酒店(富阳野生动物园酒店),30.144613,119.989175
350,浙江省,杭州市,富阳区,浙江省杭州市富阳区九龙大道197-1号,汉庭酒店杭州富阳银湖九龙大道店,30.151669,119.982564
351,浙江省,杭州市,富阳区,浙江省杭州市富阳区高科路198号3排2幢,时光旅舍,30.090135,119.90947
352,浙江省,杭州市,富阳区,浙江省杭州市富阳区春秋北路201号,白云宾馆(春秋北路店),30.064164,119.949748
353,浙江省,杭州市,富阳区,杭州市富阳区龙门镇中龙线,龙门古镇,29.906498,119.957586
354,浙江省,杭州市,富阳区,浙江省杭州市富阳区九龙大道1号,杭州野生动物世界,30.160607,119.99203
355,浙江省,杭州市,富阳区,浙江省杭州市富阳区江滨东大道138号,新沙岛旅游度假区,30.051331,119.985286
356,浙江省,杭州市,富阳区,浙江省杭州市富阳区桐董线附近,桐洲岛,29.895223,119.816417
357,浙江省,杭州市,富阳区,杭州市富阳区胥口镇上练村,富春桃源风景区,30.016771,119.64003
358,浙江省,杭州市,富阳区,杭州市富阳区胥口镇上练村富春桃源风景区内,九霄碧云洞,30.018142,119.643464
359,浙江省,杭州市,富阳区,杭州市富阳区胥口镇上练村富春桃源风景区九霄碧云洞内,西天取经,30.019486,119.643173
360,浙江省,杭州市,富阳区,杭州市富阳区春临线与江滨南大道交叉路口往西南约270米,洋浦湿地,30.021465,119.957756
361,浙江省,杭州市,富阳区,杭州市富阳区龙门镇牌楼龙门古镇内,砚池夜月,29.904791,119.958218
362,浙江省,杭州市,富阳区,浙江省杭州市富阳区龙门山,富阳龙潭瀑布,29.877658,119.981565
363,浙江省,杭州市,富阳区,浙江省杭州市富阳区恩波大道718号,城东迎宾商城,30.069115,119.957301
364,浙江省,杭州市,富阳区,浙江省杭州市富阳区东兴路39-1号,恒旺客山东炒货(城东迎宾商城店),30.069624,119.958045
365,浙江省,杭州市,富阳区,浙江省杭州市富阳区恩波大道718号城东迎宾商城F1,十足(城东迎宾商城店),30.069158,119.956786
366,浙江省,杭州市,富阳区,浙江省杭州市富阳区桂花路40号4楼,九佰服饰大卖场,30.054806,119.964182
367,浙江省,杭州市,富阳区,浙江省杭州市富阳区公园西路1158号,兄弟五金市场,30.071753,119.92062
368,浙江省,杭州市,富阳区,浙江省杭州市富阳区恩波大道888号东望大厦1层,双鸽烟酒商城,30.073077,119.954113
369,浙江省,杭州市,富阳区,浙江省杭州市富阳区恩波大道888号,添鑫烟酒商城,30.073066,119.954073
370,浙江省,杭州市,富阳区,浙江省杭州市富阳区孙权路12号,虎山家具市场(孙权路店),30.063923,119.9559
371,浙江省,杭州市,富阳区,杭州市富阳区东兴路五金机电4-5号,冯建五金机电(富阳店),30.067056,119.959318
372,浙江省,杭州市,富阳区,浙江省杭州市富阳区恩波大道718号城东迎宾商城F1,迪尊酒庄(城东迎宾商城店),30.068684,119.957046
373,浙江省,杭州市,富阳区,浙江省杭州市富阳区春秋南路141号,秦望广场,30.045272,119.951601
374,浙江省,杭州市,富阳区,浙江省杭州市富阳区金城路103号,永莱利文化广场,29.98465,119.744879
375,浙江省,杭州市,富阳区,浙江省杭州市富阳区高科路397号,嘻游城,30.090528,119.904297
376,浙江省,杭州市,富阳区,文居街1001号富阳宝龙广场F3,InM-17 CINEMA影城(富阳宝龙广场店),30.062992,119.927647
377,浙江省,杭州市,富阳区,浙江省杭州市富阳区横桐线与高泰线交叉路口西北侧(洪庄村村委会东侧),中石化柴油加油站,30.128658,119.891765
378,浙江省,杭州市,富阳区,杭州市富阳区S305中国信合(大青支行)东侧约140米,大青加油站,30.045833,119.891386
379,浙江省,杭州市,富阳区,杭州市富阳区高桦线与唐高线交叉路口往北约50米,军民桥加油站,30.174031,119.921591
380,浙江省,杭州市,富阳区,杭州市富阳区302省道附近,富阳胥口加油站,29.99147,119.687385
381,浙江省,杭州市,富阳区,杭州市富阳区涨地上120号,新淳加油站,29.986876,119.71295
382,浙江省,杭州市,富阳区,杭州市富阳区胥高线,中化加油站,30.090179,119.593574
383,浙江省,杭州市,富阳区,杭州市富阳区富春街道劳动路60号(320国道交界处),中国石油(华东加油站),30.046571,119.940017
384,浙江省,杭州市,富阳区,杭州市富阳区新登镇松溪村182号,中化道达尔(松溪加油站),30.005408,119.759514
385,浙江省,杭州市,富阳区,杭州市富阳区石墓村39号,高桦线加油站,30.139043,119.926993
386,浙江省,杭州市,富阳区,浙江省杭州市富阳区灵桥加油站(建黄线北),中化加油站(道达尔站),30.041798,120.028991
387,浙江省,杭州市,临安区,浙江省杭州市临安区钱王大街855号万华广场F3,沃尔玛购物广场(万华广场店),30.227726,119.712887
388,浙江省,杭州市,临安区,浙江省杭州市临安区农林大道与武肃街交叉口西南侧临安宝龙广场B1,永辉超市(临安宝龙广场店),30.256302,119.73272
389,浙江省,杭州市,临安区,浙江省杭州市临安区城中街290号钱王财富中心负1楼,永辉超市(钱王财富广场店),30.236702,119.728209
390,浙江省,杭州市,临安区,浙江省杭州市临安区潜阳路169号,世纪联华(於潜潜阳店),30.193031,119.405997
391,浙江省,杭州市,临安区,浙江省杭州市临安区钱王大街415号,联华购物广场(钱王街店),30.233395,119.727146
392,浙江省,杭州市,临安区,浙江省杭州市临安区石镜街1111号,义乌小商品批发超市,30.223393,119.706267
393,浙江省,杭州市,临安区,浙江省杭州市临安区青中街2号,润的购物广场,30.251066,119.825889
394,浙江省,杭州市,临安区,浙江省杭州市临安区农林大路1073号东湖校区,世纪华联超市(钱王公寓东),30.237401,119.737129
395,浙江省,杭州市,临安区,浙江省杭州市临安区西墅街883号,通城大润发,30.245905,119.714629
396,浙江省,杭州市,临安区,浙江省杭州市临安区石镜街200号,旺丰超市(石镜街店),30.233166,119.733666
397,浙江省,杭州市,临安区,浙江省杭州市临安区永丰路丰乐街33号,杭州临安昌化华悦松泉度假酒店,30.169454,119.227654
398,浙江省,杭州市,临安区,浙江省杭州市临安区天柱街362号,锦顺商务宾馆,30.254887,119.825199
399,浙江省,杭州市,临安区,浙江省杭州市临安区城中街1386号,万锦大酒店,30.225622,119.693412
400,浙江省,杭州市,临安区,浙江省杭州市临安区万马路3号,格林豪泰快捷酒店(杭州临安区万马路万华广场店),30.226333,119.714964
401,浙江省,杭州市,临安区,浙江省杭州市临安区石镜街98号,汉庭酒店(临安店),30.234727,119.737355
402,浙江省,杭州市,临安区,浙江省杭州市龙岗镇龙井村,杭州临安AS HILLS&VILLA三渡度假酒店,30.22084,119.089635
403,浙江省,杭州市,临安区,浙江省杭州市临安区天柱街98号,格雅酒店(杭州青山湖科技城店),30.260138,119.836951
404,浙江省,杭州市,临安区,杭州市临安区西天目山景区内禅源寺旁,天目山上客堂禅意酒店(天目山上客堂店),30.326662,119.454857
405,浙江省,杭州市,临安区,浙江省杭州市临安区衣锦街404号,7天酒店(杭州临安店),30.239479,119.730688
406,浙江省,杭州市,临安区,浙江省杭州市临安区唐昌街68号,贤地宾馆,30.172359,119.232497
407,浙江省,杭州市,临安区,浙江省杭州市临安区清凉峰镇白果村,大明山风景区,30.042707,118.997754
408,浙江省,杭州市,临安区,浙江省杭州市临安区龙岗镇大峡谷村,浙西大峡谷,30.240261,119.110145
409,浙江省,杭州市,临安区,临安清凉峰镇浙川村龙瀑路18号,石长城剑门景区,30.144557,118.938484
410,浙江省,杭州市,临安区,浙江省杭州市临安区天目山镇,天目山,30.353794,119.436458
411,浙江省,杭州市,临安区,浙江省杭州市临安区锦城街道集贤村,琴湖飞瀑,30.286696,119.735955
412,浙江省,杭州市,临安区,杭州市临安区天目山镇天目山村天目山风景区内,大树王景区,30.346947,119.452007
413,浙江省,杭州市,临安区,浙江省杭州市临安区太湖源镇横渡村,神龙川风景旅游度假区,30.373965,119.557593
414,浙江省,杭州市,临安区,浙江省杭州市临安区大鱼线,龙门秘境,30.372937,119.678509
415,浙江省,杭州市,临安区,杭州市临安区太碓线和碓上线的交叉口附近,白马崖景区,30.2539,119.054178
416,浙江省,杭州市,临安区,浙江省杭州市临安区老圣园路北,青山湖国家森林公园,30.24369,119.779647
417,浙江省,杭州市,临安区,浙江省杭州市临安区钱王街北区1幢,临安商城(钱王街店),30.225742,119.708042
418,浙江省,杭州市,临安区,浙江省杭州市临安区锦天路39号6幢,江南商城,30.223021,119.7083
419,浙江省,杭州市,临安区,浙江省杭州市临安区沙树路f1-8号,商城门业,30.234765,119.71902
420,浙江省,杭州市,临安区,浙江省杭州市钱王大街955号,招财商厦,30.227439,119.711384
421,浙江省,杭州市,临安区,浙江省杭州市临安区钱王街1318号8~10号,汉固达五金机电商城,30.22594,119.703788
422,浙江省,杭州市,临安区,浙江省杭州市临安区白泥路370号,天易厨具城,30.250961,119.717175
423,浙江省,杭州市,临安区,浙江省杭州市临安区锦天路352号,杭州市临安区临安商城16幢109(雅洁五金),30.225602,119.707186
424,浙江省,杭州市,临安区,浙江省杭州市临安区锦城街道财富商厦,名创优品(财富商厦店),30.236718,119.737917
425,浙江省,杭州市,临安区,浙江省杭州市临安区钱王街临安商城18幢120号,王斌装饰(临安商城店),30.226091,119.707367
426,浙江省,杭州市,临安区,浙江省杭州市临安区石镜街临安商城15a幢105号,美加华卫浴(临安商城店),30.224827,119.70797
427,浙江省,杭州市,临安区,浙江省杭州市临安区上田文化广场(石横线南),上田文化广场,30.190156,119.837269
428,浙江省,杭州市,临安区,杭州市临安区208省道西50米,后干加油站,30.325512,119.322984
429,浙江省,杭州市,临安区,浙江省杭州市临安区长西线,雅观加油站,30.329421,119.783803
430,浙江省,杭州市,临安区,杭州市临安区S208与万慕线交叉路口往东南约60米,中国石化(牧亭加油站),30.096342,119.404452
431,浙江省,杭州市,临安区,杭州市临安区杭瑞高速临安服务区,中国石化加油站(临安服务区站),30.210302,119.543138
432,浙江省,杭州市,临安区,浙江省杭州市临安区锦城街道环西路229号,环西石化加油站,30.227355,119.705738
433,浙江省,杭州市,临安区,浙江省杭州市临安区大园路2288号,中国石化L-CNG加油加气站,30.292589,119.818016
434,浙江省,杭州市,临安区,杭州市临安区S102,中国石化(杭临安第七加油站),30.063748,118.952794
435,浙江省,杭州市,临安区,杭州市临安区S205枫林雅苑东侧约170米,浙西石化加油站,30.242954,119.666555
436,浙江省,杭州市,临安区,浙江省杭州市临安区青溪街,中国石油(青云加油站),30.270078,119.607987
437,浙江省,杭州市,临安区,杭州市临安区石横线(百灵幼儿园南侧约250米),中国能源加油站(高墙站),30.185117,119.786675
438,浙江省,杭州市,桐庐县,杭州市桐庐县迎春南路359号,大润发(桐庐店),29.799211,119.695226
439,浙江省,杭州市,桐庐县,杭州市桐庐县富春江镇七里龙大街83号,华联生活超市(春江店),29.716711,119.655412
440,浙江省,杭州市,桐庐县,浙江省杭州市桐庐县富春路333号,世纪联华超市(桐庐富春路店),29.807797,119.681724
441,浙江省,杭州市,桐庐县,浙江省杭州市桐庐县春江路719号,联华超市(桐庐国贸店),29.800501,119.690649
442,浙江省,杭州市,桐庐县,浙江省杭州市桐庐县中医骨伤科医院(垂云通天河景区南),世纪华联超市(阳普店),29.925968,119.537889
443,浙江省,杭州市,桐庐县,杭州市桐庐县瑶琳路家景星城,世纪华联(瑶琳路店),29.806256,119.701588
444,浙江省,杭州市,桐庐县,浙江省杭州市桐庐县七里泷大街321号,豪庭购物超市,29.721653,119.651583
445,浙江省,杭州市,桐庐县,杭州市桐庐县广电路50号综合市场2层,世纪联华(分水东门路店),29.938613,119.446281
446,浙江省,杭州市,桐庐县,龙腾路与507县道交叉口西50米,杭州华联超市(横村店),29.839957,119.607722
447,浙江省,杭州市,桐庐县,浙江省杭州市桐庐县瑶琳路149号3楼,亿丰购物(瑶琳路店),29.807261,119.703826
448,浙江省,杭州市,桐庐县,浙江省杭州市桐庐县金中路1号,桐庐雷迪森度假酒店,29.754355,119.692078
449,浙江省,杭州市,桐庐县,浙江省杭州市桐庐县白云源路999号,桐庐开元名都大酒店,29.796054,119.699202
450,浙江省,杭州市,桐庐县,浙江省杭州市桐庐县鸬鹚路158号,芦茨1号度假酒店,29.691227,119.681565
451,浙江省,杭州市,桐庐县,浙江省杭州市桐庐县乔林路768号,锦绣商务宾馆(金东路店),29.782039,119.695655
452,浙江省,杭州市,桐庐县,浙江省杭州市桐庐县印渚2号,杭州桐庐康莱德酒店,29.990133,119.4266
453,浙江省,杭州市,桐庐县,浙江省杭州市桐庐县阆苑路666号,汐啡格雅酒店(桐庐体育馆店),29.80244,119.700869
454,浙江省,杭州市,桐庐县,浙江省杭州市桐庐县江南镇金铺路204号,水仙旅馆(金浦路店),29.871969,119.772699
455,浙江省,杭州市,桐庐县,浙江省杭州市桐庐县白云源东路69号,维也纳国际酒店(桐庐店),29.80867,119.71529
456,浙江省,杭州市,桐庐县,浙江省杭州市桐庐县莪山畲族乡戴家山7号,桐庐秘境山乡生活,29.811095,119.528701
457,浙江省,杭州市,桐庐县,杭州市桐庐县长丘田村,大乐之野民宿(桐庐店),29.800536,119.513905
458,浙江省,杭州市,桐庐县,杭州市桐庐县富春江镇七里泷段云源路1号,严子陵钓台景区,29.702276,119.65453
459,浙江省,杭州市,桐庐县,杭州市桐庐县瑶琳镇瑶琳南路110号,瑶琳仙境,29.892423,119.545052
460,浙江省,杭州市,桐庐县,浙江省杭州市桐庐县百江镇罗山村境内,天子地,29.789165,119.368603
461,浙江省,杭州市,桐庐县,浙江省杭州市桐庐县富春江镇芦茨村,白云源,29.712921,119.731031
462,浙江省,杭州市,桐庐县,浙江省杭州市桐庐县y潘戴线,桐庐一指峡谷景区,29.816096,119.549222
463,浙江省,杭州市,桐庐县,浙江省杭州市桐庐县横村镇浪石村桐溪漂流,浪石金滩,29.880659,119.583724
464,浙江省,杭州市,桐庐县,新合乡柴雅线,雪水岭景区,29.69539,119.841772
465,浙江省,杭州市,桐庐县,杭州市桐庐县横屏线,桐庐江南古村落,29.862241,119.842333
466,浙江省,杭州市,桐庐县,杭州市桐庐县富春江与天目溪合流处,桐君山,29.81547,119.693602
467,浙江省,杭州市,桐庐县,浙江省杭州市桐庐县凤川凤翙高岗古村落景区(桐常线南),凤翙高岗古村落景区,29.814509,119.78542
468,浙江省,杭州市,桐庐县,迎春南路555号,米兰商厦,29.80211,119.692344
469,浙江省,杭州市,桐庐县,浙江省杭州市桐庐县梅林路429号,中昊烟酒商城(桐城府店),29.80742,119.713396
470,浙江省,杭州市,桐庐县,浙江省杭州市桐庐县金浦路109~111号,金龙百货商场,29.872382,119.774943
471,浙江省,杭州市,桐庐县,杭州市桐庐县北环路华艺大酒店(横村店)北侧约50米,灯饰商城,29.850292,119.624373
472,浙江省,杭州市,桐庐县,浙江省杭州市桐庐县春江路379~381号,皇明太阳能气候改善商城(春江路店),29.805269,119.695792
473,浙江省,杭州市,桐庐县,浙江省杭州市桐庐县横村镇北环路双湖村综合大楼2楼,名宫照明,29.850304,119.624323
474,浙江省,杭州市,桐庐县,杭州市桐庐县迎春南路333号,桐庐中心广场,29.796276,119.695434
475,浙江省,杭州市,桐庐县,浙江省杭州市桐庐县迎春南路69号,品尚文化广场,29.793492,119.703705
476,浙江省,杭州市,桐庐县,浙江省杭州市桐庐县武盛东街20号,天合广场,29.939705,119.45489
477,浙江省,杭州市,桐庐县,杭州市桐庐县富春路与县湖塘路交叉路口往西北约60米,雷锋广场,29.810763,119.680654
478,浙江省,杭州市,桐庐县,浙江省杭州市桐庐县迎春南路618号,利时广场,29.805072,119.692508
479,浙江省,杭州市,桐庐县,杭州市桐庐县桐千路828号,嘉凯城横村城市客厅,29.847288,119.624942
480,浙江省,杭州市,桐庐县,杭州市桐庐县滨江路888号,君悦广场,29.80618,119.6934
481,浙江省,杭州市,桐庐县,浙江省杭州市桐庐县乔林路837号,富鑫装饰城,29.783198,119.69792
482,浙江省,杭州市,桐庐县,浙江省杭州市桐庐县乔林路438号恒大家居城c区,恒大家居城,29.78878,119.690612
483,浙江省,杭州市,桐庐县,浙江省杭州市桐庐县白云源路1623号,快准车服汽配商城(桐庐服务站),29.789618,119.691155
484,浙江省,杭州市,桐庐县,杭州市桐庐县宁国寺路与洋塘西路交叉路口往东南约160米,加油站,29.804719,119.638408
485,浙江省,杭州市,桐庐县,杭州市桐庐县春江西路409号,中国石油大丰加油站,29.781223,119.675816
486,浙江省,杭州市,桐庐县,浙江省杭州市桐庐县桥北路38号,德国大众石化集团加油站,29.819263,119.674488
487,浙江省,杭州市,桐庐县,浙江省杭州市桐庐县分水镇302省道,中国石化(分水加油站),29.940356,119.462923
488,浙江省,杭州市,桐庐县,浙江省杭州市桐庐县G320,中国海油协和石油加油站(桐庐站),29.784121,119.702614
489,浙江省,杭州市,桐庐县,杭州市桐庐县三联路加油站(前村下站),桐庐浙石第三加油站有限公司,29.859258,119.781171
490,浙江省,杭州市,桐庐县,杭州市桐庐县凤川大道107号,大运加油站(凤川大道站),29.829544,119.770787
491,浙江省,杭州市,桐庐县,浙江省杭州市桐庐县富春江镇上泗村,中国加油站(桐庐站),29.736281,119.642432
492,浙江省,杭州市,桐庐县,杭州市桐庐县方施线与桐千路交叉路口西侧,方埠加油站,29.865086,119.619911
493,浙江省,杭州市,桐庐县,杭州市桐庐县桐常线,油通达深澳加油站,29.858704,119.836979
494,浙江省,杭州市,淳安县,浙江省杭州市淳安县新安大街79号,世纪联华(淳安店),29.610514,119.051526
495,浙江省,杭州市,淳安县,浙江省杭州市淳安县千岛湖镇新安东路189号,世纪联华(新安东路店),29.613052,119.061477
496,浙江省,杭州市,淳安县,浙江省杭州市淳安县汾口镇武强路1号1~2层,世纪联华(淳安汾口武强路店),29.435838,118.553959
497,浙江省,杭州市,淳安县,杭州市淳安县武强路1号(近浙西购物中心),好又多(浙西购物中心店),29.435988,118.554686
498,浙江省,杭州市,淳安县,浙江省杭州市淳安县湖镇新安东路667号,世纪华联超市(新安东路店),29.619783,119.071216
499,浙江省,杭州市,淳安县,浙江省杭州市淳安县新安大街61号a区,威卡姆超市(千岛湖卖场),29.610785,119.052839
500,浙江省,杭州市,淳安县,浙江省杭州市淳安县郁川街130号,联华超市(姜家店),29.479391,118.669442
501,浙江省,杭州市,淳安县,杭州市淳安县周甘线朝阳新村(竹叶湾路)东侧约100米,世纪华联超市(周甘线店),29.63727,119.072372
502,浙江省,杭州市,淳安县,浙江省杭州市淳安县睦州大道866号,好又多(千岛湖客运中心店),29.617319,119.147383
503,浙江省,杭州市,淳安县,浙江省杭州市淳安县阳光路222~226号,好多多超市(阳光路店),29.62872,119.045134
504,浙江省,杭州市,淳安县,浙江省杭州市淳安县千岛湖镇港口路369号,千岛湖伯瑞特度假酒店,29.585725,119.003612
505,浙江省,杭州市,淳安县,浙江省杭州市淳安县千岛湖风景区千岛湖镇温馨岛C区,千岛湖温馨岛致雅艺术酒店,29.643962,119.03662
506,浙江省,杭州市,淳安县,浙江省杭州市淳安县灵岩路168号,千岛湖安麓酒店,29.483563,118.696107
507,浙江省,杭州市,淳安县,浙江省杭州市淳安县新安大街锦玉园1号楼,千岛湖绿城度假酒店,29.616055,119.046314
508,浙江省,杭州市,淳安县,浙江省杭州市淳安县千岛湖镇南景路435号,全季酒店(千岛湖景区店),29.606015,119.033049
509,浙江省,杭州市,淳安县,浙江省杭州市淳安县新安南路8-33号,锦鑫宾馆(千岛湖店),29.606756,119.05942
510,浙江省,杭州市,淳安县,杭州市淳安县千岛湖镇羡山半岛万向路,千岛湖洲际度假酒店,29.554058,119.128938
511,浙江省,杭州市,淳安县,浙江省杭州市淳安县富文乡青田村黄泥畈自然村36号,茂山青田野,29.634494,119.251988
512,浙江省,杭州市,淳安县,浙江省杭州市淳安县千岛湖镇梦姑路93号,千岛湖诺富特酒店,29.605401,119.031355
513,浙江省,杭州市,淳安县,浙江省杭州市淳安县环湖北路600号,杭州千岛湖滨江希尔顿度假酒店,29.609994,119.084574
514,浙江省,杭州市,淳安县,杭州市淳安县千岛湖镇梦姑路,千岛湖国家森林公园,29.600992,119.018693
515,浙江省,杭州市,淳安县,浙江省杭州市淳安县梦姑路,千岛湖风景区,29.552987,119.060105
516,浙江省,杭州市,淳安县,杭州市淳安县姜家镇姜方线,龙川湾,29.466842,118.687271
517,浙江省,杭州市,淳安县,浙江省杭州市淳安县富西线,千岛湖石林景区,29.380513,119.014528
518,浙江省,杭州市,淳安县,浙江省杭州市淳安县秋上线,九咆界风景区,29.937153,119.01416
519,浙江省,杭州市,淳安县,杭州市淳安县环千岛湖绿道千岛湖风景区,三潭岛,29.552139,118.975121
520,浙江省,杭州市,淳安县,千岛湖风景名胜区内,千岛湖西南湖区,29.47936,118.678822
521,浙江省,杭州市,淳安县,浙江省杭州市淳安县珍珠大道,千岛湖东南湖区,29.591235,119.082667
522,浙江省,杭州市,淳安县,杭州市淳安县千岛湖中心湖区,千岛湖风景区-温馨岛,29.643138,119.037598
523,浙江省,杭州市,淳安县,杭州市淳安县千岛湖镇千岛湖风景区千岛湖中心湖区梅峰内,千岛湖风景区-梅峰观景台,29.59111,118.913236
524,浙江省,杭州市,淳安县,浙江省杭州市淳安县新安大街87-1-2-3号,鸿运商城,29.60974,119.052255
525,浙江省,杭州市,淳安县,浙江省杭州市淳安县新安东路446号,美都·干岛湖商城,29.614748,119.067728
526,浙江省,杭州市,淳安县,杭州市淳安县千岛湖镇新安南路2-58号,千岛湖广场,29.608596,119.058732
527,浙江省,杭州市,淳安县,杭州市淳安县千岛湖镇开元度假村旁(近绿城喜来登酒店),千岛湖秀水广场,29.619318,119.050371
528,浙江省,杭州市,淳安县,杭州市淳安县青溪大道与珍珠大道交叉路口南侧,千岛湖珍珠广场,29.603985,119.119657
529,浙江省,杭州市,淳安县,杭州市淳安县昌文线嘉豪.景月湾花苑西侧约180米,李时珍广场,29.856164,119.124485
530,浙江省,杭州市,淳安县,杭州市淳安县淳城线文渊狮城度假区内,北门广场,29.479165,118.673496
531,浙江省,杭州市,淳安县,浙江省杭州市淳安县汾口镇汾口村杨璜线畹墅文化广场,畹墅文化广场,29.427444,118.54478
532,浙江省,杭州市,淳安县,浙江省杭州市淳安县千岛湖镇新安大街125号,千岛湖银泰城(广场店),29.609987,119.057465
533,浙江省,杭州市,淳安县,浙江省杭州市淳安县千岛湖鼓山涌金路366号,千岛湖鼓山商业广场,29.618461,119.120506
534,浙江省,杭州市,淳安县,浙江省杭州市淳安县千岛湖风景区青溪新城装饰市场,青溪新城装饰市场,29.600309,119.107861
535,浙江省,杭州市,淳安县,杭州市淳安县珍珠大道,七彩城文旅中心,29.599995,119.114965
536,浙江省,杭州市,淳安县,浙江省杭州市淳安县文昌镇潭头村16号,中国石化(潭头加油站),29.779351,119.210507
537,浙江省,杭州市,淳安县,浙江省杭州市淳安县潭唐公路,屏门泓泽加油站,29.870527,119.052849
538,浙江省,杭州市,淳安县,杭州市淳安县白小线与淳沙线交叉口,中国能源加油站,29.509852,118.97025
539,浙江省,杭州市,淳安县,杭州市淳安县环金线与千威线交叉路口往南约50米,金峰加油站(环金线站),29.675762,118.932464
540,浙江省,杭州市,淳安县,浙江省杭州市淳安县姜家镇北狮城路466号,中国石化(淳安姜家加油站),29.489965,118.677887
541,浙江省,杭州市,淳安县,浙江省杭州市淳安县桐溪街39号,唐村加油站,29.812248,118.862608
542,浙江省,杭州市,淳安县,杭州市淳安县白小线许源加油站,中国能源加油站(许源站),29.509869,118.970282
543,浙江省,杭州市,建德市,浙江省杭州市建德市严州大道988号2楼,大润发(建德店),29.490231,119.304988
544,浙江省,杭州市,建德市,浙江省杭州市建德市劳村旅馆(23省道南),华联超市(劳村店),29.309584,119.085798
545,浙江省,杭州市,建德市,浙江省杭州市建德市拓荣路1号,杭州.香溢.志馨烟酒.世纪华联超市(大同店),29.313634,119.117543
546,浙江省,杭州市,建德市,浙江省杭州市建德市航头镇龙丽温高速公路世纪华联超市,世纪华联超市(大店口店),29.268218,119.165463
547,浙江省,杭州市,建德市,浙江省杭州市建德市建工路1号西店,世纪华联(城西店),29.478237,119.276287
548,浙江省,杭州市,建德市,浙江省杭州市建德市东昌北路5号,联华超市(寿昌店),29.365269,119.22908
549,浙江省,杭州市,建德市,浙江省杭州市建德市严关东路新南北·盛德国际广场,太平洋购物中心,29.477635,119.283109
550,浙江省,杭州市,建德市,浙江省杭州市建德市砚西路16号,大同供销超市,29.312269,119.116218
551,浙江省,杭州市,建德市,浙江省杭州市建德市梅城镇锦峰路178号,世纪华联超市(南峰锦峰路店),29.526079,119.500214
552,浙江省,杭州市,建德市,杭州市建德市新叶村57号,彩云超市,29.336297,119.339749
553,浙江省,杭州市,建德市,浙江省杭州市建德市梅城镇严东关路88号,建德富春开元芳草地乡村酒店,29.570971,119.569523
554,浙江省,杭州市,建德市,浙江省杭州市建德市西门街18号,双塔旅馆,29.546788,119.508707
555,浙江省,杭州市,建德市,浙江省杭州市建德市新安东路688号,半岛凯豪大酒店,29.493361,119.30579
556,浙江省,杭州市,建德市,浙江省杭州市建德市沧滩路2号,丽枫酒店(新安江店),29.47817,119.27924
557,浙江省,杭州市,建德市,浙江省杭州市建德市朝阳路238号,洋溪商务大酒店,29.520492,119.325021
558,浙江省,杭州市,建德市,浙江省杭州市建德市新安路88号,汉庭酒店(新安江新店),29.47847,119.283241
559,浙江省,杭州市,建德市,杭州市建德市洋溪街道新安江路丽锦大厦3幢(新长途汽车站斜对面),皇爵精品酒店,29.520692,119.329486
560,浙江省,杭州市,建德市,浙江省杭州市建德市梅城镇严东关路,建德市赋春园大酒店,29.552849,119.551637
561,浙江省,杭州市,建德市,浙江省杭州市建德市南山路1号,杭州新安雷迪森酒店,29.473067,119.286968
562,浙江省,杭州市,建德市,浙江省杭州市建德市横峰路1号,秋林阁大酒店(建德寿昌店),29.37931,119.230821
563,浙江省,杭州市,建德市,浙江省杭州市建德市明珠路301号,新安江,29.497461,119.306682
564,浙江省,杭州市,建德市,杭州市建德市大慈岩镇,大慈岩风景区,29.320049,119.301101
565,浙江省,杭州市,建德市,杭州市建德市航头镇灵栖村,灵栖洞,29.384883,119.09675
566,浙江省,杭州市,建德市,浙江省杭州市建德市梅城镇严东关路,建德·七里扬帆景区,29.553571,119.550992
567,浙江省,杭州市,建德市,浙江省杭州市建德市航头镇石屏庄自然村,江南大冰洞-狮子岩景区,29.385317,119.115549
568,浙江省,杭州市,建德市,杭州市建德市寿李线,灵栖胜境,29.387625,119.094556
569,浙江省,杭州市,建德市,浙江省杭州市建德市横坑坞隧道码头,铜官峡情人谷好运岛景区,29.507226,119.239151
570,浙江省,金华市,浦江县,浙江省金华市浦江县虞宅乡马岭村,马岭美女峰,29.564372,119.771363
571,浙江省,杭州市,建德市,航头镇石屏庄自然村,狮子岩景区飞拉达攀岩,29.384925,119.115678
572,浙江省,杭州市,建德市,浙江省杭州市建德市大慈岩镇里叶村,十里荷花,29.268107,119.279133
573,浙江省,杭州市,建德市,杭州市建德市梅花南路西湖茗园东南侧约70米,五金机电商城,29.543459,119.50229
574,浙江省,杭州市,建德市,浙江省杭州市建德市溪边路48号,大天地商城,29.364182,119.232778
575,浙江省,杭州市,建德市,浙江省杭州市建德市新安东路汇丰商厦181-2号,老婆大人量贩零食连锁(建德汇丰商厦店),29.487084,119.296097
576,浙江省,杭州市,建德市,杭州市建德市仁汇路华庭嘉寓小区东南侧,汉固达五金机电商城,29.430845,119.268396
577,浙江省,杭州市,建德市,浙江省杭州市建德市西门街88号,汉固达五金机电商城,29.546894,119.506866
578,浙江省,杭州市,建德市,长运商厦23号,启南五金机电建材(长运商厦店),29.624709,119.549467
579,浙江省,杭州市,建德市,杭州市建德市乾潭镇建北南路长运商厦27号,浙商糖酒(建德乾潭店),29.624853,119.549554
580,浙江省,杭州市,建德市,严州大道新安商厦,博森家居(新安商厦店),29.493522,119.303789
581,浙江省,杭州市,建德市,寿昌镇东昌路大天地商城,中国烟草(大天地商城店),29.363915,119.233328
582,浙江省,杭州市,建德市,浙江省杭州市建德市新安东路如森之堡6幢,新安江广场,29.488717,119.299776
583,浙江省,杭州市,建德市,浙江省杭州市建德市新安江街道文化路43号,新安江老广场,29.477487,119.28047
584,浙江省,杭州市,建德市,浙江省杭州市建德市严州大道500号,绿城美好广场,29.476674,119.299462
585,浙江省,杭州市,建德市,浙江省杭州市建德市严关东路新南北·盛德国际广场,太平洋购物中心,29.477635,119.283109
586,浙江省,杭州市,建德市,杭州市建德市荷映路江和城西北侧约70米,17度悦荟城市广场,29.506502,119.319489
587,浙江省,杭州市,建德市,浙江省杭州市建德市新安东路253号新安财富城2楼,国美电器(新安江店),29.489548,119.298968
588,浙江省,杭州市,建德市,浙江省杭州市建德市朝阳路279-285号,城东装饰材料商行,29.521692,119.326333
589,浙江省,杭州市,建德市,杭州市建德市振兴路尚都·桔香嘉园东侧约150米,尚都家具城,29.539671,119.579632
590,浙江省,杭州市,建德市,杭州市建德市沧中路新安江第一小学东侧约110米,家具宅配(建德沧中路店),29.480004,119.27897
591,浙江省,杭州市,建德市,浙江杭州市建德市盛德国际广场2栋6楼620室,乐汀私人影院(盛德广场店),29.476719,119.282784
592,浙江省,杭州市,建德市,浙江省杭州市建德市荷花路74号,加油站,29.297332,119.303253
593,浙江省,杭州市,建德市,浙江省杭州市建德市大同镇大同村永平路145号,中国石油加油站(振兴路站),29.313587,119.114046
594,浙江省,杭州市,建德市,浙江省杭州市建德市G330(温寿线),中国石化(建德大慈岩加油站),29.310857,119.284239
595,浙江省,杭州市,建德市,杭州市建德市国香路与南四路交叉路口往西北约280米,城投石油加油站,29.52063,119.33492
596,浙江省,杭州市,建德市,杭州市建德市S305,张家加油站,29.309335,119.102041
597,浙江省,杭州市,建德市,浙江省杭州市建德市G320(沪瑞线),东恒石油加油站(程新站),29.614096,119.525793
598,浙江省,杭州市,建德市,浙江省杭州市建德市刘家188-1号,莲花兴群加油站,29.570595,119.315757
599,浙江省,杭州市,建德市,浙江省杭州市建德市S305,东恒石油加油站(建德站),29.325934,119.040141
600,浙江省,杭州市,建德市,浙江省杭州市建德市320国道建德市汽车东站附近(洋富潭新村西北),长运加油站(肯德基大润发店西南站),29.488034,119.303474
601,浙江省,杭州市,建德市,杭州市建德市更石线与黄张线交叉路口往西南约50米,中国石油(更楼加油站),29.427958,119.265331
602,浙江省,宁波市,海曙区,浙江省宁波市海曙区环城西路南段256号,沃尔玛(联丰店),29.876643,121.527694
603,浙江省,宁波市,海曙区,浙江省宁波市海曙区翠柏路160号欧尚超市b区3楼,大润发超市(海曙店),29.888192,121.542125
604,浙江省,宁波市,海曙区,浙江省宁波市海曙区丽园北路860号恒茂商业广场22号,麦德龙(海曙商场),29.896728,121.526543
605,浙江省,宁波市,海曙区,浙江省宁波市海曙区华楼街79-83号,三江购物(开明街店),29.877817,121.557674
606,浙江省,宁波市,海曙区,宁波市海曙区雅戈尔大道145-151号F2-F3,华润万家(宁波石碶店),29.833414,121.514742
607,浙江省,宁波市,海曙区,浙江省宁波市海曙区环城西路北段197号,三江购物(胜丰店),29.890991,121.529563
608,浙江省,宁波市,海曙区,浙江省宁波市海曙区尹江路193号,世纪华联(尹江路店),29.866156,121.543968
609,浙江省,宁波市,海曙区,浙江省宁波市海曙区苍松路151号,世纪华联超市(南门店),29.876573,121.537897
610,浙江省,宁波市,海曙区,宁波市海曙区和义路66号,和义大道购物中心,29.880011,121.561803
611,浙江省,宁波市,海曙区,浙江省宁波市海曙区南站东路60号,好又多(南站店),29.868412,121.545523
612,浙江省,宁波市,海曙区,浙江省宁波市海曙区南站东路2号,格林豪泰快捷酒店(宁波火车站北广场店),29.868024,121.547329
613,浙江省,宁波市,海曙区,浙江省宁波市海曙区咏归路2号,如家酒店(宁波火车站大卿桥地铁站店),29.881759,121.540792
614,浙江省,宁波市,海曙区,浙江省宁波市海曙区县学街115号,南苑e家连锁酒店(城隍庙店),29.873125,121.55393
615,浙江省,宁波市,海曙区,宁波市海曙区中山东路220号宁波第二百货商店F14,美高美酒店(宁波天一广场店),29.87691,121.563582
616,浙江省,宁波市,海曙区,浙江省宁波市海曙区苍松路71号,布丁酒店(大卿桥地铁站店),29.879574,121.538288
617,浙江省,宁波市,海曙区,浙江省宁波市海曙区云霞路101号,布丁严选酒店(宁波火车站新店),29.862779,121.535203
618,浙江省,宁波市,海曙区,浙江省宁波市海曙区国医街90号,易佰酒店(宁波天一广场鼓楼地铁站店),29.881301,121.559346
619,浙江省,宁波市,海曙区,浙江省宁波市海曙区长春路38号,如家精选酒店(宁波火车站月湖店),29.867726,121.549316
620,浙江省,宁波市,海曙区,宁波市海曙区药行街129号,宁波凯洲皇冠假日酒店,29.872989,121.560149
621,浙江省,宁波市,海曙区,宁波市海曙区柳汀街230号,宁波华侨温德姆至尊豪廷大酒店,29.874031,121.546076
622,浙江省,宁波市,海曙区,宁波市海曙区天一街10号,天一阁,29.877267,121.545981
623,浙江省,宁波市,海曙区,宁波市海曙区公园路2路,鼓楼,29.879939,121.55294
624,浙江省,宁波市,海曙区,宁波市海曙区镇明路月湖公园,院士林,29.873223,121.550783
625,浙江省,宁波市,海曙区,宁波市海曙区中山东路188号天一广场内,音乐喷泉,29.87648,121.560588
626,浙江省,宁波市,海曙区,宁波市海曙区公园路188号,逸仙楼,29.883817,121.553854
627,浙江省,宁波市,海曙区,宁波市海曙区镇明路月湖公园,蒋宅,29.875901,121.550693
628,浙江省,宁波市,海曙区,宁波市海曙区迎凤街71号,大运河水则碑,29.877988,121.552282
629,浙江省,宁波市,海曙区,宁波市海曙区马衙街72号,状元厅,29.876754,121.545928
630,浙江省,宁波市,海曙区,宁波市海曙区前丰村管江岸34号,白云庄,29.880815,121.531235
631,浙江省,宁波市,海曙区,浙江省宁波市海曙区紫金街30号,林宅,29.868741,121.551479
632,浙江省,宁波市,海曙区,宁波市海曙区药行街152号,酷购商城(天一广场店),29.875004,121.55909
633,浙江省,宁波市,海曙区,浙江省宁波市海曙区雅戈尔大道251号,宁波万国商城(雅戈尔大道店),29.831026,121.509291
634,浙江省,宁波市,海曙区,浙江省宁波市海曙区右营巷43号酷购b馆1楼,酷购商城B馆,29.875264,121.55878
635,浙江省,宁波市,海曙区,浙江省宁波市海曙区西湾路202号,高塘商场(西湾店),29.889739,121.536667
636,浙江省,宁波市,海曙区,宁波市海曙区中山东路181号,新华联商厦(中山东路店),29.878274,121.562129
637,浙江省,宁波市,海曙区,浙江省宁波市海曙区开明街1楼,城隍庙商城(县学街店),29.873396,121.556767
638,浙江省,宁波市,海曙区,浙江省宁波市海曙区药行街180-210号c座,新街商城(新街商苑东),29.87512,121.557053
639,浙江省,宁波市,海曙区,浙江宁波市海曙区尹江路26号008铺位,百汇商城(立交路),29.862631,121.549994
640,浙江省,宁波市,海曙区,浙江省宁波市海曙区联丰路145号,甬南食品商场(联丰店),29.874017,121.521473
641,浙江省,宁波市,海曙区,浙江宁波市海曙区解放北路122号弄3号楼,解北体育商城,29.883064,121.556689
642,浙江省,宁波市,海曙区,永丰西路818号,银润豪景商务广场,29.894354,121.524517
643,浙江省,宁波市,海曙区,宁波市海曙区公园路中山广场,中山广场-停车场,29.883349,121.553471
644,浙江省,宁波市,海曙区,宁波市海曙区冷静街8号,银亿时代广场-地下停车场,29.869707,121.555727
645,浙江省,宁波市,海曙区,宁波市海曙区丽园北路860号,恒茂商业广场,29.897118,121.527181
646,浙江省,宁波市,海曙区,宁波市海曙区丽园北路与范江岸路交叉口北150米,星海广场停车场-出入口,29.899935,121.525427
647,浙江省,宁波市,海曙区,浙江省宁波市海曙区新星路111号宁波高鑫广场F3,莫莉幻想(宁波高鑫广场店),29.901604,121.532465
648,浙江省,宁波市,海曙区,浙江省宁波市海曙区新星路111号宁波高鑫广场F3,宁波高鑫广场-停车场,29.901572,121.531513
649,浙江省,宁波市,海曙区,浙江省宁波市海曙区新星路111号宁波高鑫广场F2,B区(宁波高鑫广场),29.901888,121.531959
650,浙江省,宁波市,海曙区,柳庄巷41~43号,城市广场,29.884871,121.546538
651,浙江省,宁波市,海曙区,浙江省宁波市海曙区望童路19号,大西门休闲娱乐城,29.888151,121.511456
652,浙江省,宁波市,海曙区,浙江省宁波市海曙区灵桥路399号,中国石化(城中莲桥加油站),29.867884,121.560018
653,浙江省,宁波市,海曙区,浙江省宁波市海曙区环城西路南段639号,中国海油协和石油加油站(海曙站),29.862273,121.532446
654,浙江省,宁波市,海曙区,宁波市环城西路南段76号,中石化碧辟(城中西门加油站),29.879601,121.52823
655,浙江省,宁波市,海曙区,宁波市海曙区鄞州大道栎和佳苑,小蜜蜂志愿者巡逻加油站,29.815855,121.510776
656,浙江省,宁波市,海曙区,浙江省宁波市海曙区鄞县大道183号,中石化碧辟加油站(海西振兴站),29.822707,121.521848
657,浙江省,宁波市,江北区,宁波市江北区洪塘中路258号银亿海德商业中心F2,华润万家(洪塘中路店),29.947213,121.515616
658,浙江省,宁波市,江北区,浙江省宁波市江北区解放路21~23号,快乐购生活超市(慈城店),29.985633,121.455821
659,浙江省,宁波市,江北区,宁波市江北区江北大道188号万达广场B1,永辉超市(万达广场江北店),29.922551,121.536869
660,浙江省,宁波市,江北区,浙江省宁波市江北区育才路214号,世纪华联(文教店),29.900136,121.544057
661,浙江省,宁波市,江北区,浙江省宁波市江北区胡坑基路88号三江购物5楼,三江购物(金田店),29.989169,121.441243
662,浙江省,宁波市,江北区,浙江省宁波市江北区中路2楼,华润万家(洪都路店),29.935815,121.514841
663,浙江省,宁波市,江北区,浙江省宁波市江北区长阳东路106号,吉麦盛生活超市(姚江店),29.941531,121.508242
664,浙江省,宁波市,江北区,宁波市江北区石园路与钟家路交叉路口往西北约230米,里漕超市,29.935307,121.58147
665,浙江省,宁波市,江北区,浙江省宁波市江北区解放路121~125号,家家乐(慈城连锁一店),29.988076,121.455965
666,浙江省,宁波市,江北区,浙江省宁波市江北区农贸路2号,好又多(河东店),29.925199,121.603434
667,浙江省,宁波市,江北区,浙江省宁波市江北区康庄南路43号,都市118连锁酒店(康庄南路店),29.915416,121.544477
668,浙江省,宁波市,江北区,浙江省宁波市江北区榭嘉路宁馨园52号,维也纳酒店(榭嘉路店),29.922757,121.527527
669,浙江省,宁波市,江北区,浙江省宁波市江北区扬善路51号,金港大酒店,29.882623,121.565112
670,浙江省,宁波市,江北区,浙江省宁波市江北区大庆南路272号,汉庭酒店(外滩大桥地铁站店),29.892803,121.566813
671,浙江省,宁波市,江北区,浙江省宁波市江北区洪塘江北大道698号,洪塘大酒店,29.949639,121.509189
672,浙江省,宁波市,江北区,浙江省宁波市江北区清河路1号,清河宾馆(新马路店),29.896171,121.56186
673,浙江省,宁波市,江北区,浙江省宁波市江北区北环西路565号,全季酒店(中体城店),29.926491,121.545023
674,浙江省,宁波市,江北区,浙江省宁波市江北区北环西路1166号,开元美途酒店,29.934683,121.507107
675,浙江省,宁波市,江北区,浙江省宁波市江北区解放路209号,花筑·宁波慈栖里客栈,29.991588,121.456178
676,浙江省,宁波市,江北区,浙江省宁波市江北区倪家堰路86号,新杰宾馆,29.907214,121.574135
677,浙江省,宁波市,江北区,浙江省宁波市江北区慈城镇,慈城古县城,29.990004,121.457346
678,浙江省,宁波市,江北区,慈城镇五星村内,绿野山居景区,30.024977,121.412387
679,浙江省,宁波市,江北区,宁波市江北区中马路159号,宁波老外滩,29.883002,121.566869
680,浙江省,宁波市,江北区,浙江省宁波市江北区洪塘街道鞍山村安东49号,保国寺古建筑博物馆景区,29.986394,121.528185
681,浙江省,宁波市,江北区,宁波市江北区中华路82号,慈城县衙,29.995034,121.456699
682,浙江省,宁波市,江北区,宁波市江北区荪湖路1号,蝴蝶迷宫景区,29.97369,121.505603
683,浙江省,宁波市,江北区,浙江省宁波市江北区甬荪线,荪湖花海,29.979165,121.50485
684,浙江省,宁波市,江北区,宁波市江北区寻芳(宁波市慈城镇政府南100米),寻芳园,29.983102,121.456744
685,浙江省,宁波市,江北区,浙江省宁波市江北区扬善路17号,李宅(老外滩),29.882332,121.566707
686,浙江省,宁波市,江北区,宁波市江北区太阳殿路24号,冯俞宅,29.990378,121.461695
687,浙江省,宁波市,江北区,浙江省宁波市江北区长兴东路109号,吉尔发食品商场(长兴东路店),29.938948,121.506715
688,浙江省,宁波市,江北区,浙江省宁波市江北区慈城镇湖心慈城连接线慈孝广场,慈孝广场,29.984136,121.475198
689,浙江省,宁波市,江北区,宁波市江北区丽江东路天水家园二期,天水社区法治文化广场,29.917628,121.552786
690,浙江省,宁波市,江北区,宁波市江北区江北大道188号,万达广场(江北店),29.922007,121.536913
691,浙江省,宁波市,江北区,浙江省宁波市江北区江安路407号,钻石商业广场,29.8877,121.562313
692,浙江省,宁波市,江北区,宁波市江北区大庆南路与生宝路交叉口,路劲新天地广场,29.893546,121.567226
693,浙江省,宁波市,江北区,浙江省宁波市江北区中官西路855号,众冠商业广场,29.921955,121.623766
694,浙江省,宁波市,江北区,宁波市江北区华东物资城浙甬市场,友华木业家具板,29.914443,121.631414
695,浙江省,宁波市,江北区,宁波市江北区城南东路380号,中国石油加油站(慈城慈东站),29.979984,121.464845
696,浙江省,宁波市,江北区,宁波市江北区江北大道366号,甬石石油(江北大道加油站),29.93723,121.523342
697,浙江省,宁波市,江北区,浙江省宁波市江北区S319(江北大道),甬石石油加油站,30.001627,121.420614
698,浙江省,宁波市,江北区,宁波市江北区环城北路西段421号,城北加油站(环城北路站),29.903243,121.558587
699,浙江省,宁波市,江北区,浙江省宁波市江北区中国石油罗江加油站(江北连接线南),中国石油加油站(江北连接线站),29.98377,121.387448
700,浙江省,宁波市,江北区,浙江省宁波市江北区扬善路76号,中化道达尔(宁波玛瑙加油站),29.883868,121.564489
701,浙江省,宁波市,江北区,浙江省宁波市江北区云飞路与江北大道交叉路口,中国石化碧辟(城中谢家加油站),29.918791,121.535902
702,浙江省,宁波市,江北区,宁波市江北区压赛堰路与丰安路交叉路口往北约50米(宁波市第一机动车安全检测站东北侧),中国石油加油站(压赛堰路站),29.940834,121.580317
703,浙江省,宁波市,江北区,浙江省宁波市江北区环城北路东段111号,中国石化bp(城中环北加油站),29.905306,121.580812
704,浙江省,宁波市,江北区,"宁波市江北区县道704号与宁慈东路交叉口,庄桥镇南侧",永通石油加油站,29.924734,121.565927
705,浙江省,宁波市,北仑区,浙江省宁波市北仑区新大路1229号,大润发(北仑店),29.901775,121.823782
706,浙江省,宁波市,北仑区,浙江省宁波市北仑区滟澜海岸117栋1层733-38号,世纪华联生活超市(春晓店),29.772338,121.924999
707,浙江省,宁波市,北仑区,浙江省宁波市北仑区渡口路128号二店,加贝超市(红联店),29.946172,121.727795
708,浙江省,宁波市,北仑区,浙江省宁波市北仑区江南东路858号,优联生活超市(小港店),29.942993,121.726434
709,浙江省,宁波市,北仑区,浙江省宁波市北仑区小港东海路57号,加贝超市(小港店),29.956287,121.752327
710,浙江省,宁波市,北仑区,浙江省宁波市北仑区东河塘路212号,快乐购(新碶店),29.926624,121.852184
711,浙江省,宁波市,北仑区,浙江省宁波市北仑区凤洋二路313号,惠金购物,29.924186,121.832028
712,浙江省,宁波市,北仑区,浙江省宁波市北仑区华山路10号,同盛生活购物广场(北仑店),29.917064,121.838318
713,浙江省,宁波市,北仑区,浙江省宁波市北仑区高凤路222号,七彩虹购物广场,29.91721,121.860837
714,浙江省,宁波市,北仑区,浙江省宁波市北仑区东岙路88号,世纪联华(海港路店),29.905269,121.97816
715,浙江省,宁波市,北仑区,浙江省宁波市北仑区恒山路863号,锦江之星(宁波北仑区政府店),29.908823,121.857806
716,浙江省,宁波市,北仑区,浙江省宁波市北仑区大碶坝头路333号,阳光宾馆(坝头路店),29.895483,121.810786
717,浙江省,宁波市,北仑区,浙江省宁波市北仑区听海路668号,汉庭酒店(万人沙滩店),29.764888,121.906144
718,浙江省,宁波市,北仑区,浙江省宁波市北仑区信开路202号,豪都宾馆(信开路店),29.901667,121.96006
719,浙江省,宁波市,北仑区,浙江省宁波市北仑区进港西路68号,北电宾馆,29.94525,121.816471
720,浙江省,宁波市,北仑区,浙江省宁波市北仑区中七路52号,宁波万隆商务宾馆,29.765957,121.908674
721,浙江省,宁波市,北仑区,浙江省宁波市北仑区庐山西路139号,星程宁波北仑保税南区富春酒店,29.916724,121.791611
722,浙江省,宁波市,北仑区,宁波市北仑区信开路111号,大榭国际大酒店,29.901665,121.9583
723,浙江省,宁波市,北仑区,浙江省宁波市北仑区新大路1229号曼哈顿广场B区128号,北仑天港禧悦酒店(北仑店),29.902595,121.823231
724,浙江省,宁波市,北仑区,泰山路与人民北路交叉口博地影秀城F1,宁波影秀城丽筠酒店,29.906667,121.81549
725,浙江省,宁波市,北仑区,浙江省宁波市北仑区大契街道城联村九峰山,九峰山网岙景区,29.858343,121.847209
726,浙江省,宁波市,北仑区,宁波市北仑区春晓镇洋沙山路(近梅山港),洋沙山,29.755846,121.919591
727,浙江省,宁波市,北仑区,宁波市北仑区靠近穿山疏港高速路口,总台山烽火台,29.870846,122.048871
728,浙江省,宁波市,北仑区,浙江省宁波市北仑区柴桥街道九峰山旅游区内,芝水滩景区,29.835166,121.879097
729,浙江省,宁波市,北仑区,浙江省宁波市北仑区太河南路,九峰山,29.859571,121.843522
730,浙江省,宁波市,北仑区,浙江省宁波市北仑区,里外峰森林游步道,29.862127,121.872976
731,浙江省,宁波市,北仑区,宁波市北仑区滨海南路,畅园,29.897492,121.956294
732,浙江省,宁波市,北仑区,浙江省宁波市北仑区新区春晓大道,明月湖,29.763304,121.917838
733,浙江省,宁波市,北仑区,宁波市北仑区鹰山路蔚斗小学西南侧约40米,老鹰山游步道,29.950241,121.75751
734,浙江省,宁波市,北仑区,宁波市北仑区环岛北路与环岛东路交叉路口东侧,观景台,29.927963,122.0006
735,浙江省,宁波市,北仑区,浙江省宁波市北仑区新碶街道明州路160号一层,屈臣氏(宁波北仑明州商厦店),29.919158,121.845011
736,浙江省,宁波市,北仑区,宁波市北仑区新大路景第公寓,机电商城(北仑店),29.910163,121.834402
737,浙江省,宁波市,北仑区,北平路21-1号附近,美的全品微商城,29.950435,121.755279
738,浙江省,宁波市,北仑区,浙江省宁波市北仑区广源路28号,奥力孚商城,29.915818,121.850557
739,浙江省,宁波市,北仑区,浙江省宁波市北仑区新碶街道北仑影剧院天源商厦,天源商厦,29.916956,121.850546
740,浙江省,宁波市,北仑区,宁波市北仑区滨海南路111号,中信广场-南楼,29.899921,121.955121
741,浙江省,宁波市,北仑区,宁波市北仑区滨海南路111号,中信广场东楼,29.900789,121.956187
742,浙江省,宁波市,北仑区,浙江省宁波市北仑区峰城路193号,国平批发超市(峰城路店),29.885444,122.003485
743,浙江省,宁波市,北仑区,宁波市北仑区大榭开发区信开路111号大榭国际大酒店1楼,中信广场-停车场,29.900688,121.956683
744,浙江省,宁波市,北仑区,浙江省宁波市北仑区柴桥街道环镇北路359号,蓝天娱乐城,29.886167,121.92638
745,浙江省,宁波市,北仑区,宁波市北仑区峰城路158号,家润多(峰城路店),29.884831,122.000006
746,浙江省,宁波市,北仑区,浙江省宁波市北仑区黄山路857号富邦世纪商业广场F2,SANSAN(富邦世纪商业广场店),29.898536,121.851332
747,浙江省,宁波市,北仑区,宁波市北仑区黄山路857号富邦城F1,富邦城-西2门,29.898969,121.850364
748,浙江省,宁波市,北仑区,宁波市北仑区太和路,城湾村,29.837639,121.851441
749,浙江省,宁波市,北仑区,浙江省宁波市北仑区,峰城路,29.884155,121.995742
750,浙江省,宁波市,北仑区,浙江省宁波市北仑区太河南路123号,中国石油(港通加油站),29.896481,121.839117
751,浙江省,宁波市,北仑区,浙江省宁波市北仑区小港街道孔墅村胡家塔308号,壳牌(宁波北仑通途路加油站),29.937746,121.760444
752,浙江省,宁波市,北仑区,宁波市北仑区甬江路7号,祥龙加油站,29.919559,121.803619
753,浙江省,宁波市,北仑区,宁波市北仑区江南中路与东方路交叉路口往东北约200米,中石化BP加油站(新建站),29.910662,121.680574
754,浙江省,宁波市,北仑区,浙江省宁波市北仑区进港路727号,中石化碧辟(北仑新矸加油站),29.921874,121.862118
755,浙江省,宁波市,北仑区,浙江省宁波市北仑区富春江中路11号,中国石油(富春江加油站),29.92006,121.791862
756,浙江省,宁波市,北仑区,浙江省宁波市北仑区江南公路,中石化碧辟(北仑小港加油站),29.942901,121.727659
757,浙江省,宁波市,北仑区,宁波市北仑区海峰路38号,中国石化(碧辟北仑白峰加油站),29.886266,122.004526
758,浙江省,宁波市,北仑区,宁波市北仑区柴桥镇佳兴路柴桥公交站对面,金龙加油站,29.873797,121.927894
759,浙江省,宁波市,北仑区,宁波市北仑区白峰镇白峰村胡家旁1号1幢,中国石油加油站(宁波进港路站),29.876214,122.009439
760,浙江省,宁波市,镇海区,浙江省宁波市镇海区西陆路159号明海商业广场1楼,华润万家(明海店店),29.929407,121.625922
761,浙江省,宁波市,镇海区,宁波市镇宁东路3-21号单号,华润万家(镇海店),29.956592,121.701936
762,浙江省,宁波市,镇海区,浙江省宁波市镇海区庄市大道1088号1902万科广场B1层,物美超市(1902万科广场店),29.933185,121.629985
763,浙江省,宁波市,镇海区,浙江省宁波市镇海区聚兴路88号,加贝超市(胜隆店),29.92995,121.62211
764,浙江省,宁波市,镇海区,浙江省宁波市镇海区骆驼街道镇骆西路77号利时广场2楼,物美(骆驼利时广场店),29.991282,121.593646
765,浙江省,宁波市,镇海区,浙江省宁波市镇海区镇海大道699号银泰百货B1,永辉超市(银泰百货宁波镇海店),29.973083,121.605428
766,浙江省,宁波市,镇海区,浙江省宁波市镇海区慈海南路28号,万宝城购物中心,29.990308,121.590665
767,浙江省,宁波市,镇海区,浙江省宁波市镇海区庄市大道1799号,三江购物(金色广场店),29.939999,121.613544
768,浙江省,宁波市,镇海区,浙江省宁波市镇海区广源路500号,青山超市,30.027488,121.60826
769,浙江省,宁波市,镇海区,宁波市镇海区菜场路里洞桥村集中交易点东北侧约50米,广惠生活超市,29.983334,121.631476
770,浙江省,宁波市,镇海区,浙江省宁波市镇海区明海大道999号,如家酒店(宁波镇海庄市万科广场店),29.929066,121.624848
771,浙江省,宁波市,镇海区,浙江省宁波市镇海区雄镇南大街27号开元曼居酒店1楼,开元曼居酒店(宁波镇海雄镇店),29.95375,121.726032
772,浙江省,宁波市,镇海区,浙江省宁波市镇海区慈海北路1-72号,南苑e家酒店(骆驼爱琴海店),29.992298,121.592904
773,浙江省,宁波市,镇海区,浙江省宁波市镇海区慈海南路466号,城市之家快捷宾馆(骆驼店),29.983565,121.591091
774,浙江省,宁波市,镇海区,浙江省宁波市镇海区庄市大道46号,台州宾馆(宁波大学地铁站店),29.918699,121.64389
775,浙江省,宁波市,镇海区,浙江省宁波市镇海区宁镇公路(宁波大学546路终点站斜对面),小天地宾馆(宁波大学地铁站店),29.918284,121.647057
776,浙江省,宁波市,镇海区,浙江省宁波市镇海区慈海南路738号,时佳庄商务酒店,29.978,121.590656
777,浙江省,宁波市,镇海区,浙江省宁波市镇海区聚兴路1号,豪汇大酒店(宁波南苑e家庄市店),29.935291,121.61139
778,浙江省,宁波市,镇海区,浙江省宁波市镇海区庄市大道66号宁波大学正大门对面,松鹤宾馆(庄市大道店),29.918616,121.644649
779,浙江省,宁波市,镇海区,浙江省宁波市镇海区骆驼街道三五路555号,宁波卓远豪宜酒店,29.973794,121.597301
780,浙江省,宁波市,镇海区,宁波市镇海区九龙湖旅游风景区,九龙源,30.057311,121.52229
781,浙江省,宁波市,镇海区,宁波市镇海区北环东路辅路,永旺四季花海,29.937938,121.655055
782,浙江省,宁波市,镇海区,浙江省宁波市镇海区招宝山路10号,招宝山旅游风景区,29.965512,121.731872
783,浙江省,宁波市,镇海区,浙江省宁波市镇海区开源路777号,郑氏十七房,30.02738,121.613255
784,浙江省,宁波市,镇海区,兴海北路99号;永茂西路1314号宁波植物园内,水上森林,29.95295,121.614506
785,浙江省,宁波市,镇海区,浙江省宁波市镇海区汶秦路,九龙湖精灵谷,30.01753,121.504904
786,浙江省,宁波市,镇海区,"兴海北路99号,永茂西路1314号宁波植物园内",百合园,29.952925,121.613267
787,浙江省,宁波市,镇海区,宁波市镇海区庄市街道大市堰村堰头东31-3号,大家亭,29.963196,121.639756
788,浙江省,宁波市,镇海区,浙江省宁波市镇海区思源路255号,宁波帮博物馆,29.924088,121.634027
789,浙江省,宁波市,镇海区,宁波市镇海区九龙湖旅游区,香山教寺,30.058947,121.52912
790,浙江省,宁波市,镇海区,浙江省宁波市镇海区盛兴路66号,旭龙烟酒商城,29.982036,121.589345
791,浙江省,宁波市,镇海区,宁波市镇海区明斌路宁波瑞丰国际商博城,骆驼华泰电器商城,29.9936,121.585673
792,浙江省,宁波市,镇海区,浙江省宁波市镇海区南大街66号,镇海商城,29.954613,121.72661
793,浙江省,宁波市,镇海区,浙江省宁波市镇海区骆驼瑞丰商博城7栋1-476~477号,汉固达五金机电商城,29.992307,121.585035
794,浙江省,宁波市,镇海区,宁波市镇海区长应路,飞洪农资商城,29.997282,121.559613
795,浙江省,宁波市,镇海区,宁波市镇海区慈海北路与兴诚路交叉路口往东北约150米,麦点商城(慈海北路店),30.027146,121.60217
796,浙江省,宁波市,镇海区,浙江省宁波市镇海区南大街文化广场(鼓韵花苑西南100米),文化广场,29.957478,121.724455
797,浙江省,宁波市,镇海区,宁波市镇海区陈衙弄西长小区东北侧约60米,廉政文化广场,29.960573,121.719355
798,浙江省,宁波市,镇海区,宁波市镇海区九龙大道与骆慈线交叉路口往东约70米,苏北城信汽修汽配,29.990952,121.569462
799,浙江省,宁波市,镇海区,浙江省宁波市镇海区东邑北路558号欧尚超市一期2楼,苏宁易购(欧尚店),29.976241,121.601702
800,浙江省,宁波市,镇海区,浙江省宁波市镇海区东昌路45号,庄市石化,29.921446,121.609853
801,浙江省,宁波市,镇海区,宁波市镇海区庄渝北路兴龙楼梯厂南侧,加油站,29.982329,121.653165
802,浙江省,宁波市,镇海区,金川路与镇宁西路交叉口南100米,中国海油协和石油加油站(镇海西站),29.926753,121.665924
803,浙江省,宁波市,镇海区,宁波市镇海区望海南路东侧1501号,中国石化(宁波镇海永乐加油站),29.960684,121.60942
804,浙江省,宁波市,镇海区,浙江省宁波市镇海区瓷海南路骆驼街道尚志村329国道北路22号,中石化碧辟(镇海长丰加油站),29.948524,121.591499
805,浙江省,宁波市,镇海区,宁波市镇海区长应路,九龙石油加油站,30.018143,121.554466
806,浙江省,宁波市,镇海区,浙江省宁波市镇海区宁镇西路178号,中石化碧辟(清水浦加油站),29.929944,121.670718
807,浙江省,宁波市,镇海区,浙江省宁波市镇海区炼蟹线,中国油联加油站(湾塘站),29.99997,121.639488
808,浙江省,宁波市,镇海区,浙江省宁波市镇海区化工园区跃进塘路3511号恒河石化,恒河石化,30.012601,121.668602
809,浙江省,宁波市,镇海区,宁波绕城高速镇海服务区(杭州往舟山方向),中国石化加油站(镇海服务区站),29.996038,121.617868
810,浙江省,宁波市,鄞州区,浙江省宁波市鄞州区江南路526号华润万家2期1楼,华润万家(江南路店),29.893429,121.61869
811,浙江省,宁波市,鄞州区,浙江省宁波市鄞州区中兴路246~248号,家乐福(江东店),29.881533,121.592261
812,浙江省,宁波市,鄞州区,浙江省宁波市鄞州区钱湖北路288号印象城购物中心B1,华润万家(印象城购物中心钱湖北路店),29.840123,121.572575
813,浙江省,宁波市,鄞州区,浙江省宁波市鄞州区百丈东路1188号,大润发(江东店),29.861108,121.60277
814,浙江省,宁波市,鄞州区,浙江省宁波市鄞州区桑田路299号华润万家1楼,华润万家(泰富广场店),29.878696,121.598622
815,浙江省,宁波市,鄞州区,浙江省宁波市鄞州区北明程路463-471号,华润万家便利超市(锦绣东城店),29.870838,121.631252
816,浙江省,宁波市,鄞州区,浙江省宁波市鄞州区宁穿路1222号宏泰广场B1,盒马鲜生(宏泰广场店),29.865621,121.619971
817,浙江省,宁波市,鄞州区,浙江省宁波市鄞州区金家一路501号二期,三江购物(金家一路店),29.850158,121.560999
818,浙江省,宁波市,鄞州区,浙江省宁波市鄞州区人民路55号,新江厦超市(横溪店),29.733001,121.600445
819,浙江省,宁波市,鄞州区,宁波市鄞州区百丈东路1359号,华润万家便利超市(百丈东路店),29.862363,121.607431
820,浙江省,宁波市,鄞州区,宁波市鄞州区百丈东路812号,宁波开元大酒店,29.865577,121.586928
821,浙江省,宁波市,鄞州区,浙江省宁波市鄞州区莫枝北路588号,格林豪泰商务酒店(宁波东钱湖鄞县大道店),29.810676,121.637932
822,浙江省,宁波市,鄞州区,浙江省宁波市鄞州区惊驾路1088号,天港禧悦酒店,29.872614,121.610848
823,浙江省,宁波市,鄞州区,浙江省宁波市鄞州区中山东路351号,如家精选酒店(宁波天一广场江厦桥地铁站店),29.876006,121.571713
824,浙江省,宁波市,鄞州区,浙江省宁波市鄞州区连心路99号,宁波东钱湖华茂希尔顿酒店,29.79323,121.656772
825,浙江省,宁波市,鄞州区,浙江省宁波市鄞州区贸城东路88号,7豪连锁酒店(东裕新村店),29.827234,121.587265
826,浙江省,宁波市,鄞州区,浙江省宁波市鄞州区首南中路666号,开元名都大酒店(宁波店),29.820579,121.558874
827,浙江省,宁波市,鄞州区,浙江省宁波市鄞州区建宁街18号,宁波逸东诺富特酒店,29.866249,121.623038
828,浙江省,宁波市,鄞州区,浙江省宁波市鄞州区百丈东路1008号,莫泰168酒店(宁波国际会展中心百丈东路店),29.863522,121.595604
829,浙江省,宁波市,鄞州区,浙江省宁波市鄞州区贸城东路657号,汉庭酒店(钱湖北路店),29.828746,121.57709
830,浙江省,宁波市,鄞州区,宁波市鄞州区横溪镇横溪水库旁,酒埕岩仙人寨景区,29.697856,121.603871
831,浙江省,宁波市,鄞州区,浙江省宁波市鄞州区东钱湖镇,东钱湖旅游度假区,29.796581,121.654919
832,浙江省,宁波市,鄞州区,浙江省宁波市鄞州区韩天线横街村,东钱湖福泉山,29.745442,121.712602
833,浙江省,宁波市,鄞州区,浙江省宁波市鄞州区下应街道湾底村天工路,天宫庄园,29.80865,121.581524
834,浙江省,宁波市,鄞州区,浙江省宁波市鄞州区桑田路936号,宁波海洋世界,29.859249,121.589458
835,浙江省,宁波市,鄞州区,陶公路,陶公岛旅游景区,29.781984,121.649046
836,浙江省,宁波市,鄞州区,浙江省宁波市鄞州区首南中路1000号,宁波博物馆,29.821188,121.551803
837,浙江省,宁波市,鄞州区,东钱湖旅游度假区环湖东路(近下水西村),十里四香景区,29.772578,121.704065
838,浙江省,宁波市,鄞州区,浙江省宁波市鄞州区东部新城中山东路与福庆北路交叉口东南侧,生态走廊,29.857088,121.633064
839,浙江省,宁波市,鄞州区,泰康西路399号,善园,29.813724,121.53935
840,浙江省,宁波市,鄞州区,浙江省宁波市鄞州区兴宁路226号,现代商城,29.853512,121.581005
841,浙江省,宁波市,鄞州区,浙江省宁波市鄞州区鄞县大道1277号,宁波鄞州恒大装饰建材家居商城(宁波店),29.811665,121.621327
842,浙江省,宁波市,鄞州区,浙江省宁波市鄞州区贸城中路23号,甬南食品商场(钱湖店),29.828872,121.573153
843,浙江省,宁波市,鄞州区,浙江省宁波市鄞州区百丈东路995弄,甬南食品商场(太古店),29.864221,121.594922
844,浙江省,宁波市,鄞州区,浙江省宁波市鄞州区兴宁路226号,现代商城-B馆,29.85311,121.581203
845,浙江省,宁波市,鄞州区,浙江省宁波市鄞州区永达东路16~17号,美的家庭中央空调(美的电器现代商城店),29.852687,121.578334
846,浙江省,宁波市,鄞州区,浙江省宁波市鄞州区桑田路437号,甬耀食品商城(康楠店),29.875474,121.597136
847,浙江省,宁波市,鄞州区,浙江省宁波市鄞州区福明路586号云尚电动车商城a1仓,云尚电动商城,29.871565,121.599989
848,浙江省,宁波市,鄞州区,浙江省宁波市鄞州区惊驾路445号,丰年渔具商城(惊驾路店),29.878306,121.594342
849,浙江省,宁波市,鄞州区,浙江省宁波市鄞州区民安东路82号,太阳食品商场,29.875523,121.616741
850,浙江省,宁波市,鄞州区,宁波市鄞州区宝天线,文化广场,29.794978,121.77491
851,浙江省,宁波市,鄞州区,宁波市鄞州区沧海路1号,港隆时代广场,29.891426,121.611293
852,浙江省,宁波市,鄞州区,宁波市鄞州区新晖南路印象湖滨,宁波东部印象城,29.887915,121.634807
853,浙江省,宁波市,鄞州区,浙江省宁波市鄞州区盛莫路460号,惠家购物广场,29.85231,121.641004
854,浙江省,宁波市,鄞州区,宁波市鄞州区东吴中路与东珠路交叉口旁,尚购购物广场,29.815538,121.737249
855,浙江省,宁波市,鄞州区,浙江省宁波市鄞州区五乡东路788号,阿索拉,29.846038,121.729457
856,浙江省,宁波市,鄞州区,宁波市鄞州区S215与七一省道交叉路口往北约200米,天缘建材装饰装潢市场,29.67687,121.796417
857,浙江省,宁波市,鄞州区,浙江省宁波市鄞州区云龙镇前后陈村宁横公路,中石化碧辟(云龙加油站),29.785117,121.603302
858,浙江省,宁波市,鄞州区,宁波市鄞州区兴宁路与世纪大道交叉口,中石化BP(鄞州王家弄加油站),29.854182,121.605129
859,浙江省,宁波市,鄞州区,浙江省宁波市鄞州区下应北路566号,鄞州石油加油站,29.828156,121.603077
860,浙江省,宁波市,鄞州区,宁波市鄞州区钱湖北路638号,南苑石油加油站(钱湖站),29.834861,121.57399
861,浙江省,宁波市,鄞州区,宁波市鄞州区虞家11号,东兴石油加油站(钟公庙南路站),29.798585,121.53288
862,浙江省,宁波市,鄞州区,浙江省宁波市鄞州区通途路850号,中国海油协和石油加油站(通途路),29.882806,121.61114
863,浙江省,宁波市,鄞州区,浙江省宁波市鄞州区塘溪镇管江村,东江加油站,29.687793,121.698931
864,浙江省,宁波市,鄞州区,浙江省宁波市鄞州区东钱湖镇中国石化加油站,中国石化(215省道加油站),29.711326,121.675929
865,浙江省,宁波市,鄞州区,浙江省宁波市鄞州区江南路86号,中国石油加油站(江南路),29.889356,121.599703
866,浙江省,宁波市,鄞州区,兴宁东路与河清南路交叉口,中国海油(江东加油站),29.850432,121.624405
867,浙江省,宁波市,奉化区,宁波市奉化区中山东路299号宁波奉化万达广场B1,永辉超市(宁波奉化万达广场店),29.67085,121.429624
868,浙江省,宁波市,奉化区,浙江省宁波市奉化区广平路10号,加贝超市(中山路店),29.672029,121.420058
869,浙江省,宁波市,奉化区,浙江省宁波市奉化区新建东路6号,万润购物中心(方桥店),29.764377,121.464615
870,浙江省,宁波市,奉化区,浙江省宁波市奉化区汇茂路170-15号,物美生活购物广场,29.709274,121.427596
871,浙江省,宁波市,奉化区,浙江省宁波市奉化区恒丰路133号,三江购物(邻里店),29.760726,121.46211
872,浙江省,宁波市,奉化区,浙江省宁波市奉化区城基路86b幢,三江购物(东关店),29.657529,121.413132
873,浙江省,宁波市,奉化区,浙江省宁波市奉化区长河北路4号,老华联超市(方桥店),29.765608,121.460693
874,浙江省,宁波市,奉化区,浙江省宁波市奉化区中兴东路567号,三江购物(中兴东路店),29.698422,121.29666
875,浙江省,宁波市,奉化区,浙江省宁波市奉化区南渡横张线南浦购物中心,南浦购物中心(好必来超市),29.712372,121.446023
876,浙江省,宁波市,奉化区,浙江省宁波市奉化区中山东路629号,世纪一百生活超市(舒家店),29.670808,121.441959
877,浙江省,宁波市,奉化区,浙江省宁波市奉化区武岭东路19号,溪口大酒店,29.695181,121.294055
878,浙江省,宁波市,奉化区,浙江省宁波市奉化区开源路218号,仁湖宾馆,29.706099,121.430541
879,浙江省,宁波市,奉化区,浙江省宁波市奉化区S33(三三省道)西坑村,西坑民宿,29.696866,121.22463
880,浙江省,宁波市,奉化区,浙江省宁波市奉化区岳林东路239号,速8酒店(奉化岳林店),29.665254,121.439236
881,浙江省,宁波市,奉化区,宁波市奉化区东岙直岙徐凫岩内,徐凫岩房车度假露营地,29.711026,121.183547
882,浙江省,宁波市,奉化区,浙江省宁波市奉化区岳林东路288号,岳林逸宿酒店,29.664451,121.443604
883,浙江省,宁波市,奉化区,浙江省宁波市奉化区南山路177号,宁波华侨豪生大酒店,29.682653,121.419693
884,浙江省,宁波市,奉化区,浙江省宁波市奉化区中山东路1号,奉化华信天港禧悦酒店,29.671601,121.424931
885,浙江省,宁波市,奉化区,浙江省宁波市奉化区振兴路2号,春亚大酒店,29.763402,121.461856
886,浙江省,宁波市,奉化区,浙江省宁波市奉化区南山路174号,太平洋大酒店(南山路店),29.676635,121.420571
887,浙江省,宁波市,奉化区,浙江省宁波市奉化区溪口镇浒溪线,溪口风景区,29.692915,121.22711
888,浙江省,宁波市,奉化区,宁波市奉化区溪口镇徐凫岩景点内,徐凫岩步云谷玻璃栈道,29.708985,121.182736
889,浙江省,宁波市,奉化区,宁波市奉化区滕头村,宁波滕头生态旅游景区,29.707447,121.394135
890,浙江省,宁波市,奉化区,宁波市奉化区萧云路,天下第一桃园,29.683384,121.348736
891,浙江省,宁波市,奉化区,宁波市奉化区溪口镇,商量岗景区,29.720234,121.209579
892,浙江省,宁波市,奉化区,宁波市奉化区溪口镇雪窦山风景区内,千丈岩-瀑布,29.685623,121.227799
893,浙江省,宁波市,奉化区,宁波市奉化区溪口镇,亭下湖,29.662193,121.232005
894,浙江省,宁波市,奉化区,宁波市奉化区九驻段东50米,九龙潭景区,29.594426,121.31553
895,浙江省,宁波市,奉化区,浙江省宁波市奉化区,周济潭景区,29.615384,121.296714
896,浙江省,宁波市,奉化区,宁波市奉化区溪口镇蒋氏故居风景区内,武岭门,29.688453,121.291308
897,浙江省,宁波市,奉化区,浙江省宁波市奉化区南山路广南商城,广南商城,29.661222,121.418658
898,浙江省,宁波市,奉化区,浙江宁波市奉化区庆登桥路广南商城3楼302室,广南商城洪溪粮油副食店,29.661094,121.418332
899,浙江省,宁波市,奉化区,浙江省宁波市奉化区白水路31号,宝贝家母婴商城旗舰店(白水路店),29.666762,121.431629
900,浙江省,宁波市,奉化区,浙江省宁波市奉化区惠政西路8号状元楼商城5楼508室,状元楼百年好家具城,29.664224,121.422137
901,浙江省,宁波市,奉化区,宁波市奉化区公园路9号,广南商城花鸟市场,29.661787,121.417765
902,浙江省,宁波市,奉化区,宁波市奉化区庙山路力邦社区,央视网商城,29.681163,121.489756
903,浙江省,宁波市,奉化区,浙江省宁波市奉化区大成东路1599号南海锦地建材市场东区2楼,南海锦地国际建材家饰商城,29.675925,121.45851
904,浙江省,宁波市,奉化区,浙江省宁波市奉化区广平路9号,花都美容美发用品商行(阿伟),29.660927,121.419263
905,浙江省,宁波市,奉化区,宁波市奉化区百丈路武岭花园西侧约70米,伴手臻礼,29.688615,121.293583
906,浙江省,宁波市,奉化区,浙江省宁波市奉化区南山路60-6号,五金工具建筑材料经营部(广南商城店),29.661292,121.417726
907,浙江省,宁波市,奉化区,浙江省宁波市奉化区西坞南路91号,力邦文化广场,29.681698,121.490325
908,浙江省,宁波市,奉化区,浙江省宁波市奉化区西宁路8号,可发家具城,29.685849,121.504517
909,浙江省,宁波市,奉化区,浙江省宁波市奉化区金钟广场2号楼1楼,新大乐娱乐城,29.671203,121.435759
910,浙江省,宁波市,奉化区,浙江省宁波市奉化区南山路8号大润发1楼,苏宁易购(大润发店),29.659521,121.421717
911,浙江省,宁波市,奉化区,宁波市奉化区溪口镇中兴西路57号,中石化碧辟(奉化溪口第二加油站),29.688286,121.280802
912,浙江省,宁波市,奉化区,宁波市奉化区溪口镇中兴东路662号,中石化碧辟(奉化溪口第一加油站),29.699124,121.296437
913,浙江省,宁波市,奉化区,浙江省宁波市奉化区莼湖街道吴家埠村旱弄路22号,奉化区莼湖街道吴家埠加油站,29.574652,121.521915
914,浙江省,宁波市,奉化区,浙江省宁波市奉化区S309,中石化碧辟(奉化肖镇加油站),29.71661,121.351262
915,浙江省,宁波市,奉化区,宁波市奉化区岳林街道大成东路1575号,中国石化加油站,29.675534,121.455102
916,浙江省,宁波市,奉化区,浙江省宁波市奉化区西坞街道奉钱线白杜加油站,白杜加油站(白杜卫生院东北站),29.686836,121.550402
917,浙江省,宁波市,奉化区,浙江省宁波市奉化区康平路25号,中石化碧辟(宁波奉化班溪加油站),29.645599,121.251101
918,浙江省,宁波市,奉化区,浙江省宁波市奉化区南山路响岭岗,中石化碧辟(奉化响岭岗加油站),29.687936,121.419608
919,浙江省,宁波市,奉化区,宁波市奉化区新建东路,南浦加油站,29.71133,121.464406
920,浙江省,宁波市,奉化区,浙江省宁波市奉化区莼裘线,中石化碧辟(奉化栖凤加油站),29.544585,121.52911
921,浙江省,宁波市,象山县,宁波市象山县丹南路570号大润发F1,大润发(象山店),29.467865,121.894025
922,浙江省,宁波市,象山县,浙江省宁波市象山县丹峰东路32号,世纪联华(丹峰东路店),29.474144,121.887275
923,浙江省,宁波市,象山县,浙江省宁波市象山县鹤浦镇沿河路1-1号,乐购超市(沿河路店),29.157201,121.911149
924,浙江省,宁波市,象山县,浙江省宁波市象山县石浦渔港北路88号,联华超市(石浦店),29.23326,121.956884
925,浙江省,宁波市,象山县,浙江省宁波市象山县南屏路195号,好又多(象山石浦店),29.203762,121.940835
926,浙江省,宁波市,象山县,浙江省宁波市象山县贤庠镇泰和路278号,加贝超市(泰和店),29.599983,121.862591
927,浙江省,宁波市,象山县,浙江省宁波市象山县爵溪街道公屿村文化礼堂东100米,华联超市(公屿店),29.514295,121.942706
928,浙江省,宁波市,象山县,浙江省宁波市象山县沿海南线农村信用合作联社旦门分社东,旦门华联超市(双桥店),29.353012,121.92025
929,浙江省,宁波市,象山县,浙江省宁波市象山县工业园区丹河路515号白石商业广场F1,欧德隆购物广场(白石商业广场店),29.452001,121.875272
930,浙江省,宁波市,象山县,浙江省宁波市象山县金山路355号,加贝超市(石浦店),29.20515,121.939101
931,浙江省,宁波市,象山县,宁波市象山县石浦镇601乡道东海半边山旅游度假区附近,宁波象山海景皇冠假日酒店,29.266716,121.976627
932,浙江省,宁波市,象山县,浙江省宁波市象山县天安路31-33号,全季酒店(象山店),29.477238,121.880669
933,浙江省,宁波市,象山县,宁波市象山县金山路与玉泉路交汇处,锦江之星(象山石浦店),29.20512,121.939087
934,浙江省,宁波市,象山县,浙江省宁波市象山县东谷路5号,象山东谷湖开元度假酒店,29.489952,121.887806
935,浙江省,宁波市,象山县,宁波市象山县金山路218号,象山石浦半岛酒店,29.206972,121.943601
936,浙江省,宁波市,象山县,浙江省宁波市象山县青莱村,西坡象山度假酒店,29.619434,121.878504
937,浙江省,宁波市,象山县,浙江省宁波市象山县巨鹰路123号2楼,维也纳国际酒店(象山客运东站店),29.482541,121.906938
938,浙江省,宁波市,象山县,宁波市象山县松兰山滨海旅游度假区南沙滩西北侧,松兰山海景大酒店,29.432439,121.968645
939,浙江省,宁波市,象山县,宁波市象山县石浦镇兴港路289号,维也纳智好酒店(象山石浦店),29.199601,121.937491
940,浙江省,宁波市,象山县,浙江省宁波市象山县丹南路525号,7天酒店(宁波象山人民广场店),29.467121,121.889208
941,浙江省,宁波市,象山县,宁波市象山县新桥镇黄公岙村,象山影视城,29.294,121.844539
942,浙江省,宁波市,象山县,浙江省宁波市象山县巨鹰路与松兰大道交叉口东侧,宁波松兰山滨海旅游度假区,29.434607,121.964495
943,浙江省,宁波市,象山县,宁波市象山县石浦镇江心街4号,石浦渔港古城景区,29.214302,121.953794
944,浙江省,宁波市,象山县,宁波市象山县宋皇城路52号,中国渔村,29.243718,121.966247
945,浙江省,宁波市,象山县,浙江省宁波市象山县东旦沙滩,东旦时尚运动海滩,29.332768,121.949983
946,浙江省,宁波市,象山县,宁波市象山县松兰山滨海旅游度假区,松兰山海滨-南沙滩,29.431511,121.971534
947,浙江省,宁波市,象山县,宁波市象山县石浦镇高塘,花岙石林景区,29.074948,121.833872
948,浙江省,宁波市,象山县,浙江省宁波市象山县庙下坑,风门口景区,29.096166,121.977362
949,浙江省,宁波市,象山县,浙江省宁波市象山县茅洋乡溪口村,象山蟹钳港景区,29.391411,121.822049
950,浙江省,宁波市,象山县,西周镇镇安路104号,鲤龙潭森林公园,29.452869,121.698165
951,浙江省,宁波市,象山县,浙江省宁波市象山县天安路14-5号,汇金商城,29.477301,121.879292
952,浙江省,宁波市,象山县,浙江省宁波市象山县天安路8号2楼,南苑商厦,29.477462,121.87869
953,浙江省,宁波市,象山县,浙江省宁波市象山县金山路7幢,石浦商城,29.205286,121.938828
954,浙江省,宁波市,象山县,宁波市象山县丹峰西路百花苑(乐业路)北侧约70米,兴发家具商城,29.469289,121.876828
955,浙江省,宁波市,象山县,浙江省宁波市象山县来薰路88号宏利商城1楼,海宁皮草城(来薰路店),29.471865,121.882829
956,浙江省,宁波市,象山县,浙江省宁波市象山县新丰路39号,惠立手机商城副食品店,29.475929,121.877071
957,浙江省,宁波市,象山县,浙江省宁波市象山县丰茂路39号,创坤家具商城象山服务中心,29.468773,121.878631
958,浙江省,宁波市,象山县,浙江省宁波市象山县西周镇汇汉路49号,阿芳超市(汇汉路店),29.482148,121.684384
959,浙江省,宁波市,象山县,浙江省宁波市象山县文昌商城35号,贵夫人(文昌商城店),29.476307,121.878848
960,浙江省,宁波市,象山县,宁波市象山县油车路象山小商品购物市场,棉花糖(文昌商城店),29.476632,121.878673
961,浙江省,宁波市,象山县,浙江省宁波市象山县天安路308号,人民广场,29.47021,121.892126
962,浙江省,宁波市,象山县,浙江省宁波市象山县石浦镇渔港中路58号,海峡广场,29.213954,121.953382
963,浙江省,宁波市,象山县,宁波市象山县丹河路与来薰路交叉路口往西约50米,丰穂广场,29.457823,121.889194
964,浙江省,宁波市,象山县,浙江省宁波市象山县象山港路862-886号2号楼,象山港文化广场,29.480103,121.905587
965,浙江省,宁波市,象山县,宁波市象山县汤鲁线浙江农信象山县农村信用合作联社(黄避岙信用社)西南侧约190米,文化广场,29.579343,121.799555
966,浙江省,宁波市,象山县,浙江省宁波市象山县西谷路与丹南路交汇处,万达广场(宁波象山店),29.461182,121.87931
967,浙江省,宁波市,象山县,浙江省宁波市象山县丹东街巨鹰路107号,太平洋广场,29.483603,121.906128
968,浙江省,宁波市,象山县,浙江省宁波市象山县石浦镇大庆路,戴维钻石商业广场,29.203743,121.94588
969,浙江省,宁波市,象山县,浙江省宁波市象山县天安路196号,天安壹街区商业广场,29.472597,121.886357
970,浙江省,宁波市,象山县,浙江省宁波市象山县工业园区丹河路515号,白石商业广场,29.451649,121.874537
971,浙江省,宁波市,象山县,浙江省宁波市象山县新丰路366号,中国石化bp(象山加油站),29.465674,121.882035
972,浙江省,宁波市,象山县,宁波市象山县石三线鹤浦镇中心小学东南侧约200米,鹤浦加油站,29.154418,121.920319
973,浙江省,宁波市,象山县,浙江省宁波市象山县巨鹰路与靖南大街交汇处,中国石油加油站(靖南大街),29.486517,121.904583
974,浙江省,宁波市,象山县,宁波市象山县定塘镇亨水塘村峰北路68号,中石化碧辟(象山定塘加油站),29.238913,121.854261
975,浙江省,宁波市,象山县,浙江省宁波市象山县S80,加油站,29.180626,121.846835
976,浙江省,宁波市,象山县,浙江省宁波市象山县爵溪街道振瀛路7号,中石化碧辟(象山爵溪加油站),29.468883,121.954455
977,浙江省,宁波市,象山县,宁波市象山县西周镇连接线下沈沿海国道主干线象山K29处左侧,中国石油加油站(下沈站),29.481373,121.653164
978,浙江省,宁波市,象山县,宁波市象山县甬台温复线高速象山服务区内,中国石油加油站(象山服务区站),29.509737,121.830442
979,浙江省,宁波市,象山县,浙江省宁波市象山县石浦镇火炉头路256号,中石化碧辟(象山凤栖加油站),29.209003,121.945478
980,浙江省,宁波市,象山县,宁波市象山县S216,中国石油加油站(S216站),29.212548,121.838695
981,浙江省,宁波市,宁海县,浙江省宁波市宁海县中山中路69~73号,世纪联华(宁海中山中路店),29.303892,121.43655
982,浙江省,宁波市,宁海县,浙江省宁波市宁海县梅桥路16号,欧德隆生活超市,29.382629,121.453933
983,浙江省,宁波市,宁海县,宁波市宁海县白石头路与道义坊路交叉路口东南侧(春景花园),三江购物(邻里店),29.29099,121.440969
984,浙江省,宁波市,宁海县,浙江省宁波市宁海县力洋镇渡头路7号,渡头满家红超市(力洋渡头店),29.275763,121.613564
985,浙江省,宁波市,宁海县,浙江省宁波市宁海县下园路112号,三江购物(梅林店),29.387434,121.451928
986,浙江省,宁波市,宁海县,浙江省宁波市宁海县科四路8号,跃之隆生活超市,29.349535,121.470188
987,浙江省,宁波市,宁海县,浙江省宁波市宁海县兴宁北路700号,千子一家生活超市,29.344253,121.44115
988,浙江省,宁波市,宁海县,浙江省宁波市宁海县铁江东路102号,西店市场,29.490591,121.449112
989,浙江省,宁波市,宁海县,浙江省宁波市宁海县东海路6弄1号,杭州华联超市no.5(no5东海路店),29.293897,121.445853
990,浙江省,宁波市,宁海县,浙江省宁波市宁海县黄坛东路89号,世纪一百精品生活超市,29.297972,121.370756
991,浙江省,宁波市,宁海县,宁波市宁海县桃源中路159号,开元新世纪大酒店,29.31066,121.445834
992,浙江省,宁波市,宁海县,浙江省宁波市宁海县金水路16号,维也纳酒店(宁海店),29.326282,121.435795
993,浙江省,宁波市,宁海县,浙江省宁波市宁海县兴宁北路518号,7天酒店(宁波宁海国际会展中心店),29.329283,121.435633
994,浙江省,宁波市,宁海县,浙江省宁波市宁海县方山路19号,新侨宾馆(桥头胡土地管理所西北),29.390545,121.488633
995,浙江省,宁波市,宁海县,浙江省宁波市宁海县中山东路6号,宁海J·S美宿公馆酒店(宁海店),29.303777,121.44398
996,浙江省,宁波市,宁海县,浙江省宁波市宁海县金水路399号,金海开元名都大酒店,29.327109,121.4447
997,浙江省,宁波市,宁海县,浙江省宁波市宁海县兴宁中路378号,如家酒店(宁海高铁站兴宁中路店),29.31641,121.433094
998,浙江省,宁波市,宁海县,浙江省宁波市宁海县力兴中路86号,兴港商务酒店,29.307268,121.62588
999,浙江省,宁波市,宁海县,浙江省宁波市宁海县兴宁北路720号,鸿禧莱宾馆,29.343048,121.439952
1000,浙江省,宁波市,宁海县,浙江省宁波市宁海县兴海北路596号,尊瑞酒店(宁海党校店),29.336346,121.46574
1001,浙江省,宁波市,宁海县,浙江省宁波市宁海县天河景区生态风景区(白沙线南),天河生态风景区,29.21041,121.258067
1002,浙江省,宁波市,宁海县,浙江省宁波市宁海县前童镇,前童古镇,29.230328,121.356834
1003,浙江省,宁波市,宁海县,宁波市宁海县力洋镇北面,东海云顶,29.364464,121.627161
1004,浙江省,宁波市,宁海县,浙江省宁波市宁海县梅林街道山下刘村,雁苍山旅游景区,29.432269,121.401075
1005,浙江省,宁波市,宁海县,宁波市宁海县长街镇,伍山石窟风景区,29.218861,121.763272
1006,浙江省,宁波市,宁海县,浙江省宁波市宁海县跃龙街道范家西郊路霞景水岸,宁海西门城楼,29.289466,121.421685
1007,浙江省,宁波市,宁海县,宁波市宁海县雁苍山风景,财神山风景区,29.462963,121.417678
1008,浙江省,宁波市,宁海县,万商路21-2号附近,宁海县眠牛山公园,29.385719,121.488918
1009,浙江省,宁波市,宁海县,浙江省宁波市宁海县西店镇大路水上乐园内(近甬临线),邬家庄园,29.445201,121.43694
1010,浙江省,宁波市,宁海县,宁波市宁海县长街镇长街镇伍山石窟风景区,不周神山景区,29.199127,121.758269
1011,浙江省,宁波市,宁海县,宁波市宁海县跃龙街道宁海人民路9号,宁海大厦商城,29.302938,121.436887
1012,浙江省,宁波市,宁海县,浙江省宁波市宁海县时代大道59号时代农批市场二区,时代农贸市场,29.317109,121.443539
1013,浙江省,宁波市,宁海县,浙江省宁波市宁海县正学路239号,宁海麻将机商城,29.307835,121.434954
1014,浙江省,宁波市,宁海县,宁波市宁海县兴宁北路宁海县创心幼儿园西南侧约250米,跃米商城,29.346472,121.441092
1015,浙江省,宁波市,宁海县,浙江省宁波市宁海县兴宁北路408号,锐锢商城(宁海体验店),29.325872,121.433783
1016,浙江省,宁波市,宁海县,宁波市宁海县跃龙街道宁海人民路9号宁海大厦商城F1,周大福(宁海大厦商城店),29.302664,121.437129
1017,浙江省,宁波市,宁海县,长街镇(长街市场里面),启爱家电商城,29.252457,121.718438
1018,浙江省,宁波市,宁海县,宁波市宁海县气象南路宁海实验小学教育集团(实验校区)东侧约190米,孟赞烟酒店(正国商厦店),29.300749,121.440422
1019,浙江省,宁波市,宁海县,宁波市宁海县桃源南路172号,361度(桃源商厦店),29.294667,121.439264
1020,浙江省,宁波市,宁海县,宁波市宁海县跃龙街道宁海人民路9号宁海大厦商城F3,太平鸟(宁海大厦商城店),29.303223,121.436905
1021,浙江省,宁波市,宁海县,宁波市宁海县天广路与中山中路交叉口西北,潘天寿广场,29.305953,121.438856
1022,浙江省,宁波市,宁海县,宁波市宁海县北斗北路潘天寿小学西侧约90米,参茸广场,29.308355,121.437797
1023,浙江省,宁波市,宁海县,浙江省宁波市宁海县气象北路398号,桃源广场,29.319116,121.441051
1024,浙江省,宁波市,宁海县,浙江省宁波市宁海县兴宁北路81号,欧德隆休闲购物广场,29.319752,121.432105
1025,浙江省,宁波市,宁海县,浙江省宁波市宁海县跃龙街道天寿路10号,满堂红(天寿路店),29.306261,121.43386
1026,浙江省,宁波市,宁海县,浙江省宁波市宁海县气象北路637号,苏宁易购(宁海会展中心店),29.327548,121.43995
1027,浙江省,宁波市,宁海县,宁波市宁海县工商街宁海县长街镇政府西南侧约170米,燕青家具商场,29.252315,121.718296
1028,浙江省,宁波市,宁海县,宁波市宁海县兴海北路海锦苑东北侧约120米,金兴加油站,29.324033,121.45829
1029,浙江省,宁波市,宁海县,浙江省宁波市宁海县西店南路159号,中石化碧辟(宁波宁海西店加油站),29.479012,121.435786
1030,浙江省,宁波市,宁海县,宁波市宁海县311省道附近,马岙加油站,29.371589,121.253141
1031,浙江省,宁波市,宁海县,浙江省宁波市宁海县大佳何镇大何西路50号,中石化碧辟(宁海大佳何加油站),29.42864,121.556887
1032,浙江省,宁波市,宁海县,浙江省宁波市宁海县深甽镇环城南路5号,中石化BP(宁波宁海深圳加油站),29.418428,121.357552
1033,浙江省,宁波市,宁海县,浙江省宁波市宁海县甬临线与科二路交叉口,中石化碧辟(宁波宁海城北加油站),29.345206,121.455478
1034,浙江省,宁波市,宁海县,浙江省宁波市宁海县桑洲镇五福桥东侧,中石化BP加油站(黄坛站),29.1547,121.314523
1035,浙江省,宁波市,宁海县,宁波市宁海县兴宁南路与纺织东路交叉口,中石化碧辟(宁波宁海南门加油站),29.287826,121.433384
1036,浙江省,宁波市,宁海县,宁波市宁海县越沙线七市小学北侧约100米,七市加油站,29.219169,121.504233
1037,浙江省,宁波市,宁海县,宁波市宁海县东南溪8号,加油站(毛屿邮电所南站),29.288832,121.573301
1038,浙江省,宁波市,余姚市,宁波市余姚市城东路888号五彩城F1,华润万家(五彩城店),30.073364,121.185996
1039,浙江省,宁波市,余姚市,浙江省宁波市余姚市健康路108号舜大财富广场东区负1楼,华润万家(余姚阳明店),30.058992,121.161968
1040,浙江省,宁波市,余姚市,浙江省宁波市余姚市陆埠大街17号,陆埠好又多超市(大街店),29.99017,121.245341
1041,浙江省,宁波市,余姚市,浙江省宁波市余姚市新民中路119号,家家福(新民中路店),30.020065,121.294833
1042,浙江省,宁波市,余姚市,宁波市余姚市明伟菜场2楼,家家福(明伟店),30.025586,121.197151
1043,浙江省,宁波市,余姚市,浙江省宁波市余姚市陆埠镇洋溪南路1-6号,家家福生活超市(陆埠店),29.994257,121.244022
1044,浙江省,宁波市,余姚市,宁波市余姚市兴贤路安馨华苑东南侧约30米,艾妮超市,30.090471,121.158415
1045,浙江省,宁波市,余姚市,宁波市余姚市大黄桥路161号,新华联百货,30.045762,121.161117
1046,浙江省,宁波市,余姚市,浙江省宁波市余姚市安捷东路216号,安捷购物广场,30.033055,121.3557
1047,浙江省,宁波市,余姚市,浙江省宁波市余姚市望湖路22号,嘉悦购物广场,30.066076,121.189207
1048,浙江省,宁波市,余姚市,四明山仰天湖,宁波仰天湖山庄,29.748728,121.081763
1049,浙江省,宁波市,余姚市,浙江省宁波市余姚市南雷路226号,如家酒店(四明广场店),30.04682,121.163168
1050,浙江省,宁波市,余姚市,浙江省宁波市余姚市四明西路703号,如家·neo-宁波余姚万达广场四明西路店,30.034344,121.146347
1051,浙江省,宁波市,余姚市,浙江省宁波市余姚市阳明西路299号,汉庭酒店(阳明西路店),30.053983,121.147631
1052,浙江省,宁波市,余姚市,宁波市余姚市南雷南路398号,余姚开元曼居酒店(南雷南路店),30.029283,121.163442
1053,浙江省,宁波市,余姚市,浙江省宁波市余姚市舜水南路96-3号四明广场第二人民医院1~5层,锦江之星(四明广场店),30.04803,121.158276
1054,浙江省,宁波市,余姚市,浙江省宁波市余姚市兴诚路9号,海纳百川休闲主题酒店(兴诚路店),30.094078,121.163875
1055,浙江省,宁波市,余姚市,宁波市余姚市兰江街道四明西路855号万达广场F1,星程酒店(余姚万达广场店),30.033925,121.141593
1056,浙江省,宁波市,余姚市,浙江宁波市余姚市黄泥岭71号,大乐之野谷舍(余姚店),29.800439,121.160436
1057,浙江省,宁波市,余姚市,浙江省宁波市余姚市阳明西路377-379号,银河宾馆(阳明西路店),30.052931,121.136431
1058,浙江省,宁波市,余姚市,宁波市余姚市大岚镇柿林村蜻白线,丹山赤水风景名胜区,29.799424,121.167433
1059,浙江省,宁波市,余姚市,浙江省宁波市余姚市甘油线,四明山国家森林公园,29.73133,121.092878
1060,浙江省,宁波市,余姚市,浙江省宁波市余姚市牟山镇牟山村滨湖新城南100米,大眼睛景区,30.07114,121.00235
1061,浙江省,宁波市,余姚市,宁波市余姚市袁毛线大隐镇芝林村,浙东小九寨,29.915738,121.302235
1062,浙江省,宁波市,余姚市,宁波市余姚市西大线罗汉谷风景区-四明·岚舍民宿,罗汉谷风景区,29.785875,121.146129
1063,浙江省,宁波市,余姚市,浙江省宁波市余姚市裘岙村,裘岙玻璃栈道,29.897895,121.225991
1064,浙江省,宁波市,余姚市,浙江省宁波市余姚市陈家岩村,余姚市白鹿狮峰观景台,29.846378,121.181766
1065,浙江省,宁波市,余姚市,西石线,宁波市石门风景区,29.952074,121.20267
1066,浙江省,宁波市,余姚市,S33(三三省道),四窗岩景区,29.768516,121.12412
1067,浙江省,宁波市,余姚市,宁波市余姚市四明山镇甘竹岭甘油线四明山国家森林公园内,水帘洞景区,29.751102,121.091581
1068,浙江省,宁波市,余姚市,宁波市余姚市新建路63号,华联商厦(余姚店),30.055126,121.162759
1069,浙江省,宁波市,余姚市,宁波市余姚市新建路6-8号,新大新时尚广场,30.053696,121.163675
1070,浙江省,宁波市,余姚市,宁波市余姚市新建路63号华联商厦F1,周大福(华联商厦余姚店),30.055163,121.162658
1071,浙江省,宁波市,余姚市,宁波市余姚市新建路63号华联商厦F4,雅戈尔(华联商厦余姚店),30.054711,121.162996
1072,浙江省,宁波市,余姚市,迎凤路临山镇新城综合市场东南侧约140米,大家商城,30.158754,120.991849
1073,浙江省,宁波市,余姚市,浙江省宁波市余姚市长丰桥路6号,新天地家私商场(长丰桥路店),30.038608,121.126639
1074,浙江省,宁波市,余姚市,宁波市余姚市新建路63号华联商厦F1,凤凰金楼(华联商厦余姚店),30.055137,121.162503
1075,浙江省,宁波市,余姚市,浙江省宁波市余姚市东大街24号,万安商厦,30.167294,121.057294
1076,浙江省,宁波市,余姚市,宁波市余姚市新建路63号华联商厦B1,读书人书店(华联商厦余姚店),30.051763,121.163102
1077,浙江省,宁波市,余姚市,宁波市余姚市新建路63号华联商厦F1,Zippo(华联商厦余姚店),30.054985,121.16241
1078,浙江省,宁波市,余姚市,浙江省宁波市余姚市望湖路22号,嘉悦购物广场,30.066076,121.189207
1079,浙江省,宁波市,余姚市,浙江省宁波市余姚市小童家朗霞街2号,中国裘皮城,30.172765,121.097941
1080,浙江省,宁波市,余姚市,宁波市余姚市城东路2085号,中国有色金属材料城,30.094889,121.184549
1081,浙江省,宁波市,余姚市,浙江省宁波市余姚市安捷东路216号,安捷购物广场,30.033055,121.3557
1082,浙江省,宁波市,余姚市,宁波市余姚市城东路888号五彩城F1,优衣库(五彩城店),30.073782,121.186785
1083,浙江省,宁波市,余姚市,浙江省宁波市余姚市永和东路390号,余姚中国裘皮城3期,30.168353,121.103685
1084,浙江省,宁波市,余姚市,浙江省宁波市余姚市金型路,余姚五彩城地下停车库停车场-出入口,30.07254,121.185476
1085,浙江省,宁波市,余姚市,宁波市余姚市杭沈线中国裘皮城,中国裘皮城-停车场,30.17248,121.098159
1086,浙江省,宁波市,余姚市,宁波市余姚市北河沿路与三官堂路交叉路口往西北约80米,余姚站-站前广场,30.059969,121.167094
1087,浙江省,宁波市,余姚市,浙江省宁波市余姚市余慈大道8~10号,天池大酒店-水晶宫沐浴休闲广场,30.177913,121.211551
1088,浙江省,宁波市,余姚市,浙江省宁波市余姚市S59(五九省道),中石化碧辟(余姚河姆渡加油站),29.983365,121.313585
1089,浙江省,宁波市,余姚市,浙江省宁波市余姚市丈亭镇龙丰村杨家100号,中石化BP(宁波余姚平湖加油站),30.043774,121.24721
1090,浙江省,宁波市,余姚市,浙江省宁波市余姚市谭家岭西路1199号,中化石油(余姚谭家岭加油站),30.0292,121.107492
1091,浙江省,宁波市,余姚市,宁波市余姚市古乍线余姚市第五职业技术学校北侧约120米,中国石油加油站(古乍线站),30.015374,121.252722
1092,浙江省,宁波市,余姚市,宁波市余姚市渚北东路27号,马渚加油站,30.086278,121.061838
1093,浙江省,宁波市,余姚市,宁波市余姚市南雷南路688号,中石化碧辟(余姚道口加油站),30.012275,121.164958
1094,浙江省,宁波市,余姚市,宁波市余姚市三三省道梁弄汽车站西南侧约40米,中国石油加油站(三三省道站),29.910877,121.090697
1095,浙江省,宁波市,余姚市,浙江省宁波市余姚市阳明东路与城东路交叉口,中石化碧辟(宁波余姚城东加油站),30.053645,121.183528
1096,浙江省,宁波市,余姚市,浙江省宁波市余姚市S61(城东路),中化道达尔加油站,30.023092,121.17812
1097,浙江省,宁波市,余姚市,浙江省宁波市余姚市二六市村工业点18号,中石化碧辟(余姚二六市加油站),30.017519,121.393791
1098,浙江省,宁波市,慈溪市,浙江省宁波市慈溪市庵东镇邮电路458号,华润万家(邮电路店),30.275006,121.224726
1099,浙江省,宁波市,慈溪市,浙江省宁波市慈溪市宗汉街道三北西大街1555号保利MALLF2,福家超市(保利MALL店),30.185348,121.218018
1100,浙江省,宁波市,慈溪市,浙江省宁波市慈溪市樟新北路242号,华润万家(慈客隆逍林店),30.19143,121.334258
1101,浙江省,宁波市,慈溪市,宁波市慈溪市兴慈四路与滨海三路交叉口,滨海购物超市,30.328297,121.308681
1102,浙江省,宁波市,慈溪市,宁波市慈溪市中兴一路6号利时广场F2,仟家易麦购物超市(利时广场店),30.297115,121.298718
1103,浙江省,宁波市,慈溪市,浙江省宁波市慈溪市天九街新都汇1楼,华润万家(老浒山店),30.176648,121.250941
1104,浙江省,宁波市,慈溪市,浙江省宁波市慈溪市观海卫路278~280号,华润万家(慈客隆观城店),30.174188,121.414604
1105,浙江省,宁波市,慈溪市,浙江省宁波市慈溪市坎胜路751号,华润万家(慈客隆坎墩店),30.226311,121.266531
1106,浙江省,宁波市,慈溪市,浙江省宁波市慈溪市新城大道269-325号前应东区,华润万家(前应路店),30.158446,121.264787
1107,浙江省,宁波市,慈溪市,浙江省宁波市慈溪市观附公路1272~1276号,华润万家(慈客隆附海店),30.221507,121.399137
1108,浙江省,宁波市,慈溪市,浙江省宁波市慈溪市金源大道9号,宁波杭州湾世纪金源大饭店,30.330723,121.237115
1109,浙江省,宁波市,慈溪市,金溪东路1号,南苑e家(杭州湾新区店),30.321051,121.292273
1110,浙江省,宁波市,慈溪市,浙江省宁波市慈溪市贵安路100号,汉庭酒店(杭州湾世纪城店),30.336251,121.237714
1111,浙江省,宁波市,慈溪市,浙江省宁波市慈溪市凤鸣路138号,怡莱精品酒店(慈溪龙山凤鸣路店),30.086659,121.55797
1112,浙江省,宁波市,慈溪市,浙江省宁波市慈溪市三北东路273号,慈溪沈师桥大酒店,30.148281,121.435375
1113,浙江省,宁波市,慈溪市,浙江省宁波市慈溪市慈甬路78号,汉庭酒店(慈甬路店),30.17401,121.25801
1114,浙江省,宁波市,慈溪市,浙江省宁波市慈溪市杨梅大道北路888号,慈溪白金汉爵大酒店,30.158001,121.247789
1115,浙江省,宁波市,慈溪市,浙江省宁波市慈溪市朱家桥路21号,锦江之星(慈溪银泰城上林坊步行街酒店),30.17371,121.245786
1116,浙江省,宁波市,慈溪市,浙江省宁波市慈溪市环城南路436号,久逅空谷幽兰酒店(慈溪银泰店),30.173581,121.245112
1117,浙江省,宁波市,慈溪市,浙江省宁波市慈溪市环城南路288号,慈溪杭州湾环球大酒店,30.173798,121.24861
1118,浙江省,宁波市,慈溪市,宁波市慈溪市上林湖南首,栲栳山景区,30.113156,121.340344
1119,浙江省,宁波市,慈溪市,浙江省宁波市慈溪市观海卫镇三黄线,五磊山风景区,30.078586,121.404909
1120,浙江省,宁波市,慈溪市,宁波市-慈溪市-寺马线,岗墩古道风景区,30.098731,121.312106
1121,浙江省,宁波市,慈溪市,龙山镇达蓬公路雅戈尔达蓬山旅游度假区内,达蓬山仙佛谷景区,30.065865,121.522161
1122,浙江省,宁波市,慈溪市,宁波市慈溪市龙山镇徐福村,雅戈尔达蓬山旅游度假区,30.087293,121.517402
1123,浙江省,宁波市,慈溪市,宁波市慈溪市杭州湾跨海大桥海中平台,海天一洲,30.46646,121.135904
1124,浙江省,宁波市,慈溪市,浙江省宁波市杭州湾新区滨海二路928号,杭州湾海皮岛景区,30.333101,121.243588
1125,浙江省,宁波市,慈溪市,宁波市慈溪市天元镇天潭路99号,永淦古玩旅游区,30.194662,121.181399
1126,浙江省,宁波市,慈溪市,观海卫镇鸣鹤村五磊山风景区内,藏云溪,30.090989,121.392454
1127,浙江省,宁波市,慈溪市,宁波市慈溪市芳龙路与龙凤路交叉口南100米,凤浦湖,30.07549,121.554039
1128,浙江省,宁波市,慈溪市,浙江省宁波市慈溪市解放中街387-1号4号楼,城隍庙商城(浒山路店),30.176642,121.248255
1129,浙江省,宁波市,慈溪市,浙江省宁波市慈溪市浒山街道南门大街117号,金黄商厦,30.176575,121.249922
1130,浙江省,宁波市,慈溪市,宁波市慈溪市杭沈线与万兴路交叉路口往西南约70米,万丰商城,30.139826,121.444024
1131,浙江省,宁波市,慈溪市,浙江省宁波市慈溪市凤鸣路298-304号,龙山购物中心,30.086296,121.55791
1132,浙江省,宁波市,慈溪市,"浙江省宁波市慈溪市南洋商城10幢1-5,1-6号正东方向50米",南洋商城,30.294716,121.29992
1133,浙江省,宁波市,慈溪市,宁波市慈溪市龙门路慈都家园西北侧约40米,龙山商城,30.084266,121.558076
1134,浙江省,宁波市,慈溪市,浙江省宁波市慈溪市振工路133号,新大西洋商城,30.175841,121.135997
1135,浙江省,宁波市,慈溪市,浙江省宁波市慈溪市南城边街112号,观城商城批发部,30.17851,121.413339
1136,浙江省,宁波市,慈溪市,浙江省宁波市慈溪市新城大道南路249号,百分百商城,30.16651,121.268696
1137,浙江省,宁波市,慈溪市,浙江省宁波市慈溪市坎墩大道557号,金豪五金机电批发商城,30.222826,121.259805
1138,浙江省,宁波市,慈溪市,宁波市慈溪市滨海二路901号,杭州湾金融广场,30.32847,121.233874
1139,浙江省,宁波市,慈溪市,浙江省宁波市慈溪市观海卫路278~280号,华润万家(慈客隆观城店),30.174188,121.414604
1140,浙江省,宁波市,慈溪市,宁波市慈溪市芦苇路与金合路交叉口西150米,杭州湾世纪城观澜苑-南门,30.332691,121.240506
1141,浙江省,宁波市,慈溪市,浙江省宁波市慈溪市金合路,杭州湾世纪城清芷园-南门,30.332016,121.23321
1142,浙江省,宁波市,慈溪市,浙江省宁波市慈溪市滨海四路,汀香苑-北门,30.338944,121.228476
1143,浙江省,宁波市,慈溪市,浙江省宁波市慈溪市日显路8号新美居建材城一期3号楼,宁波新美居国际建材城,30.126632,121.56106
1144,浙江省,宁波市,慈溪市,浙江省宁波市慈溪市滨海三路357号,亿购购物广场,30.331704,121.290391
1145,浙江省,宁波市,慈溪市,汽贸大道599号(汽贸大道与新横路交叉口东50米路南),慈溪古玩城,30.177082,121.313502
1146,浙江省,宁波市,慈溪市,宁波市慈溪市滨海四路1072号附近,江岚苑-南门,30.339731,121.231431
1147,浙江省,宁波市,慈溪市,宁波市慈溪市中兴一路6号利时广场F1,利时广场-北门,30.297717,121.298479
1148,浙江省,宁波市,慈溪市,浙江省宁波市慈溪市杭州湾新区滨海四路1237号,中国石化(杭州湾新区中兴一路加油站),30.336959,121.214923
1149,浙江省,宁波市,慈溪市,浙江省宁波市慈溪市329国道复线辅路,中国石油加油站(中横线站),30.20949,121.410548
1150,浙江省,宁波市,慈溪市,宁波市慈溪市宗汉街道百两桥花坛东北角,中国石油加油站(宗汉大道),30.195283,121.217672
1151,浙江省,宁波市,慈溪市,宁波市慈溪市西龙线,中航石化加油站,30.277807,121.371458
1152,浙江省,宁波市,慈溪市,浙江省宁波市慈溪市汇轸路1号,中国石化(宁波杭州湾新区汇轸路加油站),30.336555,121.361225
1153,浙江省,宁波市,慈溪市,浙江省宁波市慈溪市慈甬路578号,中国石化bp(慈溪城东加油站),30.173377,121.269451
1154,浙江省,宁波市,慈溪市,浙江省慈溪市附海镇观附公路228号,中石化碧辟(慈溪附海加油站),30.202257,121.393499
1155,浙江省,宁波市,慈溪市,浙江省宁波市慈溪市周巷镇巷通路2号中横线辅路,中国石化慈溪周巷中横线南加油站,30.224397,121.151751
1156,浙江省,宁波市,慈溪市,宁波市慈溪市南三环路与新城大道交汇处东150米,中国石油加油站(南三环路),30.147267,121.268643
1157,浙江省,宁波市,慈溪市,宁波市慈溪市镇东路万翔美郡东北侧约60米,中化加油站(慈溪长宁站),30.231761,121.194197
1158,浙江省,温州市,鹿城区,浙江省温州市鹿城区锦绣路210号南国大厦1楼,联华超市(南国店),28.006106,120.701472
1159,浙江省,温州市,鹿城区,浙江省温州市鹿城区划龙桥路安泰大厦三区1楼,联华超市(温州安泰店),27.995969,120.683991
1160,浙江省,温州市,鹿城区,浙江省温州市鹿城区大南路鸿锳大厦1楼,沃尔玛(鸿鍈店),28.014145,120.670421
1161,浙江省,温州市,鹿城区,浙江省温州市鹿城区飞霞北路276号,沃尔玛购物广场(温州欧洲城店),28.025068,120.673829
1162,浙江省,温州市,鹿城区,浙江省温州市鹿城区乘凉桥50-60号,乐联超市(温州鹿一店),28.015383,120.663603
1163,浙江省,温州市,鹿城区,鹿城区鞋都二期稽师经一路A3幢,百信超市(嵇师店),28.027145,120.589591
1164,浙江省,温州市,鹿城区,浙江省温州市鹿城区锦源路1号站前东小区6栋,人本超市(锦源路店),27.990901,120.695529
1165,浙江省,温州市,鹿城区,温州市鹿城区里垟新路清泰锦园,世纪华联超市(里垟新路店),27.988978,120.654835
1166,浙江省,温州市,鹿城区,浙江省温州市鹿城区清源路108号,吾家生活超市(新城店),28.006397,120.712692
1167,浙江省,温州市,鹿城区,鹿城区嘉和花园北,乐联超市(杨府山店),28.012627,120.718768
1168,浙江省,温州市,鹿城区,浙江省温州市鹿城区戴宅路108号二期4楼,优品商务宾馆,28.030095,120.586369
1169,浙江省,温州市,鹿城区,浙江省温州市鹿城区学院东路387号,锐思特连锁酒店(学院东路会展中心店),28.011034,120.717734
1170,浙江省,温州市,鹿城区,浙江省温州市鹿城区小南路82号,格林豪泰快捷酒店(小南门店),28.01037,120.665679
1171,浙江省,温州市,鹿城区,浙江省温州市鹿城区飞霞南路796号2层,易佰酒店(飞霞南路店),28.012543,120.67598
1172,浙江省,温州市,鹿城区,浙江省温州市鹿城区龙方路50号,易佰酒店(下吕浦店),27.990452,120.675764
1173,浙江省,温州市,鹿城区,浙江省温州市鹿城区锦绣路球山花园118号,嘉林商务宾馆(锦绣路店),28.005841,120.704789
1174,浙江省,温州市,鹿城区,浙江省温州市鹿城区锦绣路下吕浦锦园1-2幢2-3层(财富购物中心西边),亿旺连锁酒店(财富店),28.004562,120.687966
1175,浙江省,温州市,鹿城区,浙江省温州市鹿城区人民中路1号,国际大酒店,28.015534,120.669406
1176,浙江省,温州市,鹿城区,浙江省温州市鹿城区江滨东路1号(紧邻会展中心),万和豪生酒店,28.023124,120.724295
1177,浙江省,温州市,鹿城区,浙江省温州市鹿城区飞霞南路46号,锐思特汽车酒店(温州飞霞南路店),28.016274,120.677139
1178,浙江省,温州市,鹿城区,浙江省温州市鹿城区望江东路119号,江心屿,28.032933,120.645401
1179,浙江省,温州市,鹿城区,浙江省温州市鹿城区南塘街,温州南塘文化旅游区(印象南塘),28.000126,120.675181
1180,浙江省,温州市,鹿城区,温州市鹿城区雅漾路1-1号附近,岩雅山风景名胜区,28.05398,120.504853
1181,浙江省,温州市,鹿城区,浙江省温州市鹿城区环城东路198号东门大厦对面,华盖山景区,28.022879,120.670802
1182,浙江省,温州市,鹿城区,温州市鹿城区前沙村中心路92-1号,七都花空间,27.997819,120.781686
1183,浙江省,温州市,鹿城区,温州市鹿城区鼓楼街116号,谯楼,28.019916,120.664609
1184,浙江省,温州市,鹿城区,温州市鹿城区永宁巷60号,古德院,28.027485,120.66376
1185,浙江省,温州市,鹿城区,石林环线,西龙溪风景区,28.10966,120.419561
1186,浙江省,温州市,鹿城区,温州市鹿城区南塘步行街温州南塘文化旅游区(印象南塘),印象南塘,28.004062,120.675621
1187,浙江省,温州市,鹿城区,浙江省温州市鹿城区瓯江路,灯光观景台,28.024927,120.723686
1188,浙江省,温州市,鹿城区,滨江街道宏源路25号,7MORE进口商城,28.005922,120.715522
1189,浙江省,温州市,鹿城区,温州市鹿城区解放街67号,纱帽河商城,28.016927,120.668226
1190,浙江省,温州市,鹿城区,浙江省温州市鹿城区鹿城路375号陶瓷品市场2区2楼,温州陶瓷品市场(鹿城路店),28.017819,120.643563
1191,浙江省,温州市,鹿城区,五马街122号,五马广场商城(新街公寓南),28.017692,120.664704
1192,浙江省,温州市,鹿城区,浙江省温州市鹿城区城西街202号,城西商城,28.022502,120.660792
1193,浙江省,温州市,鹿城区,浙江省温州市鹿城区温州大道471~472号,火车站地下商城,27.988566,120.691142
1194,浙江省,温州市,鹿城区,浙江省温州市鹿城区西城路52号1幢,白鹿商城(西城路店),28.020461,120.643111
1195,浙江省,温州市,鹿城区,浙江省温州市鹿城区人民东路62号c座,谢池商城,28.017058,120.671754
1196,浙江省,温州市,鹿城区,温州市鹿城区环城东路59号,海港商城,28.022779,120.672116
1197,浙江省,温州市,鹿城区,浙江省温州市鹿城区五马街63号2层,金乐商场,28.017735,120.665845
1198,浙江省,温州市,鹿城区,温州市鹿城区府西路81号,世纪广场(府西路),27.997069,120.705842
1199,浙江省,温州市,鹿城区,浙江省温州市鹿城区车站大道288号,时代广场(车站大道店),28.004128,120.690925
1200,浙江省,温州市,鹿城区,黎明西路262弄15号,温州装饰城(温州市劳动和社会保障局东北),28.019348,120.680364
1201,浙江省,温州市,鹿城区,温州市鹿城区黎明西路262弄15号,温州装饰城-A区,28.019449,120.680113
1202,浙江省,温州市,鹿城区,浙江省温州市鹿城区江滨西路355号欧洲城a区a幢,新时代电影大世界(欧洲城店),28.025445,120.677742
1203,浙江省,温州市,鹿城区,鹿城区学院东路与加州路交叉口,杨府山公园下沉式商业广场,28.011955,120.718857
1204,浙江省,温州市,鹿城区,温州市鹿城区时代广场购物中心(车站大道)附近,时代广场购物中心(车站大道)-接送点,28.004761,120.691313
1205,浙江省,温州市,鹿城区,浙江省温州市鹿城区飞霞北路276号欧洲城沃尔玛1楼,雪加电子烟体验店(温州欧洲城店),28.025352,120.675294
1206,浙江省,温州市,鹿城区,温州市鹿城区潮济村8号,中国石化(瓯海大道加油站),28.04833,120.506122
1207,浙江省,温州市,鹿城区,温州市鹿城区江滨中路东段,中国石化(江滨加油站),28.022251,120.698347
1208,浙江省,温州市,鹿城区,温州市鹿城区藤桥镇渔藤路768号,藤桥加油站,28.074732,120.523682
1209,浙江省,温州市,鹿城区,温州市鹿城区江滨东路与杨府山路交叉路口往东南约50米,交运石油加油站(杨府山站),28.02085,120.716542
1210,浙江省,温州市,鹿城区,浙江省温州市鹿城区G104(京福线),仰义加油站,28.082066,120.593192
1211,浙江省,温州市,鹿城区,温州市鹿城区温金路778号,交运石油加油站,28.034473,120.596838
1212,浙江省,温州市,鹿城区,温州市鹿城区京岚线与沿发路交叉路口西北侧,后京加油站,28.090175,120.595182
1213,浙江省,温州市,鹿城区,浙江省温州市鹿城区下桥路24-1号(五马美食林鸿景大酒店斜对面),壳牌(农资加油站),28.01238,120.635419
1214,浙江省,温州市,鹿城区,温州市鹿城区温丽高速,金港石化,28.160203,120.443447
1215,浙江省,温州市,龙湾区,浙江省温州市龙湾区永中西路799号大润发一区2楼,大润发(龙湾店),27.929373,120.821594
1216,浙江省,温州市,龙湾区,浙江省温州市龙湾区永定路1188号温州龙湾万达广场B1楼,永辉超市(万达广场永定路店),27.926621,120.81643
1217,浙江省,温州市,龙湾区,人民路10-14号,永商联华生活超市(人民南路店),27.833567,120.773967
1218,浙江省,温州市,龙湾区,上江前州路105-108号,百分百生活超市(前州店),27.993998,120.730816
1219,浙江省,温州市,龙湾区,浙江省温州市龙湾区滨海六路1楼,永丰购物商场(滨海店),27.872089,120.822482
1220,浙江省,温州市,龙湾区,浙江省温州市龙湾区永安江路55号,永丰超市(邻里店),27.980578,120.753232
1221,浙江省,温州市,龙湾区,浙江省温州市龙湾区三道十二路588号,欧客隆超市(滨海十二路店),27.854152,120.815008
1222,浙江省,温州市,龙湾区,浙江省温州市龙湾区永康路a区2楼,永丰超市(永中店),27.927892,120.834338
1223,浙江省,温州市,龙湾区,浙江省温州市龙湾区玉苍西路雁湖住宅区2组团5~7幢1楼,人本超市(雁湖店),27.991956,120.720499
1224,浙江省,温州市,龙湾区,浙江省温州市龙湾区海滨蟾钟村办公楼西南(沙前街北),世纪莲花连锁超市(蟾钟店),27.914453,120.844119
1225,浙江省,温州市,龙湾区,浙江省温州市龙湾区永中街道南翔锦苑18幢201室(近围垦路),锐思特连锁酒店(温州龙湾机场永中店),27.918836,120.836168
1226,浙江省,温州市,龙湾区,浙江省温州市龙湾区钱江路75号,锐思特连锁酒店(温州经济开发区店),27.975896,120.754282
1227,浙江省,温州市,龙湾区,浙江省温州市龙湾区沧下路52号,易佰连锁旅店(新街桥头店),27.921829,120.833929
1228,浙江省,温州市,龙湾区,浙江省温州市龙湾区滨海六路2180号,锐思特(温州龙湾滨海园区店),27.868223,120.825632
1229,浙江省,温州市,龙湾区,浙江省温州市龙湾区镇标路37号,汉庭酒店(永强大道店),27.918946,120.837039
1230,浙江省,温州市,龙湾区,浙江省温州市龙湾区永中街道永强大道2661~2663号,黎明宾馆(永强大道店),27.911741,120.831862
1231,浙江省,温州市,龙湾区,浙江省温州市龙湾区龙腾路28号,温州金龙宾馆(龙腾路店),27.975482,120.769585
1232,浙江省,温州市,龙湾区,浙江省温州市龙湾区滨海六路2469号,普尔顿M酒店(温州滨海园区店),27.872652,120.820825
1233,浙江省,温州市,龙湾区,浙江省温州市龙湾区浦河街4号,红日旅馆,27.871189,120.799546
1234,浙江省,温州市,龙湾区,浙江省温州市龙湾区海滨街道机场大道396号,维也纳国际酒店(温州机场店),27.927414,120.846154
1235,浙江省,温州市,龙湾区,浙江省温州市龙湾区瑶溪街道罗峰路,瑶溪风景名胜区,27.930634,120.765456
1236,浙江省,温州市,龙湾区,温州市龙湾区永中街道天柱寺风景区山脚下,莲情谷,27.886182,120.786269
1237,浙江省,温州市,龙湾区,瑶溪镇瑶溪风景区内,龙岗山,27.937027,120.777074
1238,浙江省,温州市,龙湾区,浙江省温州市龙湾区瑶溪风景区,金钟瀑,27.922966,120.749968
1239,浙江省,温州市,龙湾区,温州市龙湾区龙飞路状元东片五组团西侧约50米,状元亭,27.976106,120.771241
1240,浙江省,温州市,龙湾区,温州市龙湾区天柱寺路,天柱峰,27.891328,120.790326
1241,浙江省,温州市,龙湾区,瓯海大道辅路南200米,乐颐亭,27.960086,120.759044
1242,浙江省,温州市,龙湾区,龙湾区东门村休闲公园(城河东路北),东门村休闲公园,27.832924,120.779917
1243,浙江省,温州市,龙湾区,温州市龙湾区永中街道(天柱寺水库北100米),天柱寺,27.886563,120.776909
1244,浙江省,温州市,龙湾区,温州市龙湾区瑶溪街道永胜村大罗山,龙岗寺,27.935277,120.766381
1245,浙江省,温州市,龙湾区,温州市龙湾区龙腾路81号后门,龙珠商城,27.977238,120.769493
1246,浙江省,温州市,龙湾区,浙江省温州市龙湾区永康路a区2楼,永丰超市(永中店),27.927892,120.834338
1247,浙江省,温州市,龙湾区,浙江省温州市龙湾区状元新街龙珠商城22号,喔也童装(龙珠商城店),27.977419,120.769431
1248,浙江省,温州市,龙湾区,浙江省温州市龙湾区万达广场5号写字楼(温州龙湾万达广场),万达广场(永定路店)-地下停车场,27.927154,120.820114
1249,浙江省,温州市,龙湾区,浙江省温州市龙湾区温州大道690号,温州联结福家居购物广场,27.987923,120.72441
1250,浙江省,温州市,龙湾区,浙江省温州市龙湾区永定路1188号温州龙湾万达广场B1楼,永辉超市(万达广场永定路店),27.926621,120.81643
1251,浙江省,温州市,龙湾区,温州市龙湾区永定路1188号万达广场F1,万达广场(永定路店)-1号门,27.925285,120.819461
1252,浙江省,温州市,龙湾区,浙江省温州市龙湾区凤凰城(永中西路北),凤凰城-南门,27.937506,120.79188
1253,浙江省,温州市,龙湾区,温州市龙湾区永定路1188号万达广场F1,优衣库(万达广场永定路店),27.92618,120.817121
1254,浙江省,温州市,龙湾区,温州市龙湾区永定路与龙祥路交叉口东150米,万达广场(永定路店)-2号门,27.926168,120.816693
1255,浙江省,温州市,龙湾区,温州市龙湾区京华路与古浦路交叉口东南100米,万康财富广场-东北门,27.931139,120.819652
1256,浙江省,温州市,龙湾区,浙江省温州市龙湾区永强大道东方明珠城15幢,迈尚威尔健身(温州明珠城店),27.916566,120.838133
1257,浙江省,温州市,龙湾区,浙江省温州市龙湾区温州大道690号,温州联结福家居购物广场-停车场,27.987672,120.724927
1258,浙江省,温州市,龙湾区,温州市龙湾区永强大道4808号,永中加油站,27.922826,120.839179
1259,浙江省,温州市,龙湾区,机场大道1785号龙湾交通中心内,中国石油加油站(龙湾交通中心站),27.974345,120.766363
1260,浙江省,温州市,龙湾区,浙江省温州市龙湾区滨海五道258号,中国石化(金海加油站),27.83778,120.806986
1261,浙江省,温州市,龙湾区,浙江省温州市龙湾区机场大道604号,中国石油(机场大道站),27.939122,120.845695
1262,浙江省,温州市,龙湾区,温州市龙湾区机场大道2789号,黄山加油站,27.955974,120.835976
1263,浙江省,温州市,龙湾区,温州市龙湾区天河镇永强大道346-352号,中国石油加油站(天河站),27.846213,120.788037
1264,浙江省,温州市,龙湾区,浙江省温州市龙湾区空港新区金海一道938号,浙江石油加油站(龙湾天城北园站),27.852124,120.844012
1265,浙江省,温州市,瓯海区,浙江省温州市瓯海区集光路337~341号,世纪华联超市(集光店),27.959514,120.604338
1266,浙江省,温州市,瓯海区,浙江省温州市瓯海区化成路35号,温州永丰连锁超市(仙岩店),27.860951,120.676548
1267,浙江省,温州市,瓯海区,浙江省温州市瓯海区慈湖横街2号,优尚购物中心(慈湖店),27.956973,120.661124
1268,浙江省,温州市,瓯海区,浙江省温州市瓯海区瞿溪街道会昌路1号,民丰超市(瞿溪分店),27.999329,120.53732
1269,浙江省,温州市,瓯海区,温州市瓯海区繁新路将军新村A,华联超市(繁新路店),28.015099,120.644482
1270,浙江省,温州市,瓯海区,温州市瓯海区月落垟东路OYO翡翠大酒店(温瑞大道温州火车站店)东南侧约70米,世纪华联(月落垟店),27.981787,120.688729
1271,浙江省,温州市,瓯海区,浙江省温州市瓯海区前岸东路22号,世纪华联超市(温州南站店),27.972288,120.592174
1272,浙江省,温州市,瓯海区,浙江省温州市瓯海区潘桥街道皎巨路10号,易捷超市(潘桥店),27.969593,120.579192
1273,浙江省,温州市,瓯海区,浙江省温州市瓯海区双堡西路135号2楼,温州永丰(双堡西路店),27.971069,120.66495
1274,浙江省,温州市,瓯海区,浙江省温州市瓯海区塘西中路85号,咏尚生活超市(梧田店),27.982519,120.681105
1275,浙江省,温州市,瓯海区,浙江省温州市瓯海区金湖街46-2号,小天鹅旅馆,27.978386,120.602756
1276,浙江省,温州市,瓯海区,浙江省温州市瓯海区梧田街道南浦路10号,南塘印象主题酒店(南浦店),27.990163,120.684629
1277,浙江省,温州市,瓯海区,浙江省温州市瓯海区东方北路111号,格林斯顿商务宾馆(东方北路店),27.969576,120.661437
1278,浙江省,温州市,瓯海区,浙江省温州市瓯海区新桥街道国鼎路118号,锦江之星品尚(新桥店),27.990395,120.625495
1279,浙江省,温州市,瓯海区,浙江省温州市瓯海区福州路666号,维也纳国际酒店(温州高铁南站店),27.937505,120.577642
1280,浙江省,温州市,瓯海区,浙江省温州市瓯海区邮电路110号,万荣达商务宾馆(潘桥店),27.960821,120.58311
1281,浙江省,温州市,瓯海区,浙江省温州市瓯海区茶山街道高教园区商务中心二期8-11层,索特来文艺酒店(温州大学城店),27.923226,120.712093
1282,浙江省,温州市,瓯海区,浙江省温州市瓯海区瓯海大道55号,阿外楼度假酒店,27.972941,120.695048
1283,浙江省,温州市,瓯海区,浙江省温州市瓯海区瓯海大道1888号,新潘桥大酒店(任桥店),27.97998,120.582414
1284,浙江省,温州市,瓯海区,浙江省温州市瓯海区瓯海大道1500号,繁诚大酒店(动车南站店),27.973964,120.602722
1285,浙江省,温州市,瓯海区,浙江省温州市瓯海区环库线与瓯湖线交叉路口往西南约100米,泽雅风景名胜区,28.034688,120.397201
1286,浙江省,温州市,瓯海区,温州市瓯海区仙竹路2号,仙岩风景区,27.882424,120.698807
1287,浙江省,温州市,瓯海区,浙江省温州市瓯海区三垟街道温瑞大道,三垟湿地,27.95767,120.694604
1288,浙江省,温州市,瓯海区,温州市瓯海区茶山镇霞岙村,温州乐园,27.913036,120.69121
1289,浙江省,温州市,瓯海区,浙江省温州市瓯海区工业新区卧龙路,大罗山风景区,27.938232,120.742457
1290,浙江省,温州市,瓯海区,陶金线泽雅风景名胜区,泽雅龙井风景名胜区,27.975441,120.44369
1291,浙江省,温州市,瓯海区,温州市瓯海区泽雅风景区内通景路2846号,金坑峡景区,28.034644,120.388571
1292,浙江省,温州市,瓯海区,温州市瓯海区象山路3号,八仙岩风景区,27.988166,120.535238
1293,浙江省,温州市,瓯海区,温州市瓯海区泽雅镇泽雅风景区,四连碓造纸作坊,28.005428,120.427094
1294,浙江省,温州市,瓯海区,温州市瓯海区张家桥路50弄1号,五福源,27.973766,120.71458
1295,浙江省,温州市,瓯海区,浙江省温州市瓯海区温州大道2楼,新南站商城,27.9875,120.685942
1296,浙江省,温州市,瓯海区,浙江省温州市瓯海区高昂路1号楼1010室,比利司进口商城(牛山广场店),27.972099,120.644103
1297,浙江省,温州市,瓯海区,温州市瓯海区中汇路温州站南商贸城,手机商城,27.96577,120.594766
1298,浙江省,温州市,瓯海区,温州市瓯海区卧龙北路与桉桐东路交叉路口往东北约110米,凯景灯饰商城,27.94288,120.610367
1299,浙江省,温州市,瓯海区,浙江温州市瓯海区雪山路367号前进苑880号,莲花广场,28.001118,120.633524
1300,浙江省,温州市,瓯海区,温州市瓯海区牛山南路温州慈宁医院西南1门西侧约40米,梧田街道南堡村健身休闲广场,27.971787,120.657503
1301,浙江省,温州市,瓯海区,古岸路中梁公馆1号对面,中梁亿象商业广场,27.975297,120.622519
1302,浙江省,温州市,瓯海区,浙江省温州市瓯海区黄屿大道与袁宅路交汇处西北角,宏地壹品广场,27.984767,120.720807
1303,浙江省,温州市,瓯海区,温州市瓯海区站南商贸城附近,站南商贸城-接送点,27.9835,120.687107
1304,浙江省,温州市,瓯海区,浙江省温州市瓯海区欧海大道518号,嘉宝莉漆装饰材料(市场店),27.966921,120.663969
1305,浙江省,温州市,瓯海区,浙江省温州市瓯海区瓯海大道1102号,中国石化顺风加油站,27.97028,120.630994
1306,浙江省,温州市,瓯海区,浙江省温州市瓯海区娄东大街354-482号,中国石油加油站(娄东大街),27.98132,120.61824
1307,浙江省,温州市,瓯海区,温州市瓯海区荣宁街298号,潘桥加油站,27.968001,120.58186
1308,浙江省,温州市,瓯海区,温州市瓯海区南白象镇横港头村(温州中学旁),中国石化(横港加油站),27.958971,120.693851
1309,浙江省,温州市,瓯海区,温州市瓯海区一零四国道南白象段275号,白象石油加油站,27.926077,120.682362
1310,浙江省,温州市,瓯海区,温州市瓯海区潘桥镇泉塘村92号,中泉石化加油站,27.922355,120.58783
1311,浙江省,温州市,瓯海区,温州市仙岩镇岩二村繁荣北路与景山东路交叉口北,BOAT(仙岩加油站),27.885616,120.681022
1312,浙江省,温州市,瓯海区,浙江省温州市瓯海区104国道慈湖段105号,慈湖加油站,27.957211,120.663219
1313,浙江省,温州市,瓯海区,温州市瓯海区温瑞大道温州格林斯顿商务宾馆(南白象店)南侧约140米,交运石油(温瑞大道站),27.944072,120.693433
1314,浙江省,温州市,瓯海区,温州市瓯海区温瞿东路500号,中国石化浦西加油站(温瞿东路),27.996584,120.609507
1315,浙江省,温州市,洞头区,浙江省温州市洞头区中兴路38号,人本超市(新城店),27.849055,121.16517
1316,浙江省,温州市,洞头区,温州市洞头区荣昆路温州市洞头区灵昆爱绿幼儿园西北侧约120米,世纪莲花超市(灵昆店),27.970255,120.893755
1317,浙江省,温州市,洞头区,浙江省温州市洞头区北岙镇上街55号,人本超市(文化街店),27.840018,121.162668
1318,浙江省,温州市,洞头区,浙江省温州市洞头区富民街43号,富民超市,27.968467,121.097141
1319,浙江省,温州市,洞头区,浙江省温州市洞头区瓯帆路138号,成功超市,27.960312,120.937765
1320,浙江省,温州市,洞头区,浙江省温州市洞头区繁灵街2号2楼,新乐购超市(繁灵店),27.970704,120.893621
1321,浙江省,温州市,洞头区,浙江省温州市洞头区滨海南路13号,乐乐小超市(滨海南路店),27.861623,121.069391
1322,浙江省,温州市,洞头区,浙江省温州市洞头区灵展路50号,好又多购物中心(雁鸿路店),27.955559,120.936645
1323,浙江省,温州市,洞头区,温州市洞头区雁鸿路温州水果批发市场西南侧约60米,佳佳生活超市,27.963482,120.943029
1324,浙江省,温州市,洞头区,浙江省温州市洞头区海兴路93号海悦城139号,旺和超市(海兴路店),27.848807,121.154931
1325,浙江省,温州市,洞头区,温州市洞头区三盘岛沿港大道288号,温州金海岸开元名都度假酒店,27.871814,121.17163
1326,浙江省,温州市,洞头区,浙江省温州市洞头区溢香路88号,溢香国际大酒店(洞头店),27.828575,121.138499
1327,浙江省,温州市,洞头区,浙江省温州市洞头区海润路355号,维也纳国际酒店(洞头店),27.84806,121.157623
1328,浙江省,温州市,洞头区,浙江省温州市洞头区霞晖大道64号,蓝色海岸大酒店,27.84505,121.159414
1329,浙江省,温州市,洞头区,浙江省温州市洞头区仙岩西路7号,温州泉丰酒店,27.828018,121.164586
1330,浙江省,温州市,洞头区,浙江省温州市洞头区霞光大道259号,温州海逸酒店,27.847093,121.15933
1331,浙江省,温州市,洞头区,浙江省温州市洞头区瓯帆路126号1号楼,安心商务宾馆,27.960194,120.93797
1332,浙江省,温州市,洞头区,浙江省温州市洞头区九村路888号,九珑湖度假酒店,27.970684,120.912811
1333,浙江省,温州市,洞头区,浙江省温州市洞头区振兴东路160号,温州华侨大酒店,27.970823,121.10355
1334,浙江省,温州市,洞头区,浙江省温州市洞头区中心街建设巷1~2号,东方罗马假日酒店(中心街店),27.838663,121.158893
1335,浙江省,温州市,洞头区,温州市洞头区,洞头风景名胜区,27.823945,121.170926
1336,浙江省,温州市,洞头区,洞头列岛内,大沙岙景区,27.824295,121.182291
1337,浙江省,温州市,洞头区,温州市洞头区,小岩山景区,27.960018,121.073837
1338,浙江省,温州市,洞头区,灵展路与雁鸿路交叉口,十里樱花园,27.948765,120.939518
1339,浙江省,温州市,洞头区,温州市洞头区洞头列岛内,仙叠岩,27.823152,121.17951
1340,浙江省,温州市,洞头区,温州市洞头区,大沙岙海边休闲走廊,27.951093,121.109361
1341,浙江省,温州市,洞头区,温州市洞头区人民路金海花苑东南侧约110米,海中湖,27.842134,121.158591
1342,浙江省,温州市,洞头区,浙江省温州市洞头区,小竹屿,27.826657,121.227413
1343,浙江省,温州市,洞头区,温州市洞头区仙叠岩,南炮台山,27.822806,121.181097
1344,浙江省,温州市,洞头区,温州市洞头区大门镇小荆村,小荆山景区,27.960411,121.074074
1345,浙江省,温州市,洞头区,温州市洞头区中兴路新城商厦,加减(温州洞头新城商厦店),27.849043,121.165059
1346,浙江省,温州市,洞头区,温州市县前路,县府广场,27.841664,121.163558
1347,浙江省,温州市,洞头区,温州市洞头区兴渔路,鹿西渔家文化广场,27.987265,121.183192
1348,浙江省,温州市,洞头区,温州市洞头区阳光100浅水湾西侧约120米,双垅村百姓健身广场,27.846193,121.175527
1349,浙江省,温州市,洞头区,温州市洞头区,上社休闲广场,27.873151,121.05371
1350,浙江省,温州市,洞头区,温州市洞头区鸽梅线,大王殿村健身广场,27.851354,121.190432
1351,浙江省,温州市,洞头区,城东路,远程科教文化广场,27.838432,121.170123
1352,浙江省,温州市,洞头区,浙江省温州市瓯江口新区欧石路与雁辉路交汇处,德亨·瓯江口新时代广场,27.935089,120.937787
1353,浙江省,温州市,洞头区,浙江省温州市洞头区新城大道246弄7号,新城广场,27.850067,121.165758
1354,浙江省,温州市,洞头区,浙江省温州市洞头区北岙街道九厅文晖路恒博广场,恒博广场,27.855759,121.17221
1355,浙江省,温州市,洞头区,浙江省温州市洞头区灵昆街112-117号,苏宁易购(灵昆店),27.968923,120.894568
1356,浙江省,温州市,洞头区,浙江省温州市洞头区瓯江口产业集聚区灵昆街道雁鸣路398号,浙江石油加油站(瓯江口瓯绣大道站),27.949054,120.91991
1357,浙江省,温州市,洞头区,浙江省温州市洞头区五岛公路中国石油加油站(霓北中学附近),中国石油加油站(五岛公路站),27.865,121.074129
1358,浙江省,温州市,洞头区,温州市洞头区大门镇振兴西路216号,中化道达尔加油站(沙岩站),27.965259,121.090879
1359,浙江省,温州市,洞头区,温州市洞头区车站路洞头区新城1期东南侧约80米,中国石化加油站(九厅站),27.849022,121.169684
1360,浙江省,温州市,永嘉县,浙江省温州市永嘉县双塔路2139~2141号,人本超市(中楠店),28.046374,120.634328
1361,浙江省,温州市,永嘉县,浙江省温州市永嘉县双塔路罗滨小区a组团1-5幢,尚品超市(罗滨店),28.045725,120.667374
1362,浙江省,温州市,永嘉县,浙江省温州市永嘉县新建街5号,世纪华联(新建街店),28.072532,120.62099
1363,浙江省,温州市,永嘉县,浙江省温州市永嘉县桥头镇桥东北大街106号,浙江供销超市(桥东北大街店),28.174785,120.486452
1364,浙江省,温州市,永嘉县,浙江省温州市永嘉县东瓯街道中河东路3号,好利来超市(中心路店),28.058051,120.621822
1365,浙江省,温州市,永嘉县,浙江省温州市永嘉县江北大街294-330号,大田园超市(瓯北店),28.047309,120.644297
1366,浙江省,温州市,永嘉县,浙江省温州市永嘉县电力路1号2楼,永商联华生活超市,28.036819,120.800371
1367,浙江省,温州市,永嘉县,浙江省温州市永嘉县上塘镇县前路47号,供销超市(上塘店),28.160078,120.700011
1368,浙江省,温州市,永嘉县,浙江省温州市永嘉县双塔路3133号,温永商购物中心(张堡西路店),28.058136,120.61448
1369,浙江省,温州市,永嘉县,浙江省温州市永嘉县嘉泰街2-8号,大东方超市(上塘店),28.155253,120.697785
1370,浙江省,温州市,永嘉县,浙江省温州市永嘉县富强路1号,汉庭酒店(温州永嘉双塔路店),28.046613,120.650539
1371,浙江省,温州市,永嘉县,浙江省温州市永嘉县桥头镇滨江路45号,OYO桥头宾馆(江心屿滨江路店),28.169653,120.486121
1372,浙江省,温州市,永嘉县,浙江省温州市永嘉县县前路376号,速8酒店(温州永嘉县前西路店),28.155195,120.691029
1373,浙江省,温州市,永嘉县,浙江省温州市永嘉县双塔路1386号,普尔顿M酒店(永嘉瓯北双塔路店),28.046311,120.653139
1374,浙江省,温州市,永嘉县,浙江省温州市永嘉县新村路2号,楠溪江耕读小院,28.257358,120.743663
1375,浙江省,温州市,永嘉县,浙江省温州市永嘉县县前路126号,钱塘世纪大酒店,28.156257,120.692757
1376,浙江省,温州市,永嘉县,浙江省温州市永嘉县阳光大道1号,温州梦江大酒店,28.041825,120.662334
1377,浙江省,温州市,永嘉县,浙江省温州市永嘉县双塔路1018号,人人国际酒店,28.046502,120.666586
1378,浙江省,温州市,永嘉县,浙江省温州市永嘉县新江路与阳光大道交叉口西北150米,温州铂尔曼酒店,28.041485,120.647402
1379,浙江省,温州市,永嘉县,温州市永嘉县桥头镇桥头大街维多利广场,温州永嘉维多利开元大酒店,28.161751,120.493338
1380,浙江省,温州市,永嘉县,温州市永嘉县,楠溪江,28.257881,120.744171
1381,浙江省,温州市,永嘉县,浙江省温州市永嘉县白石线岭上村49号,岭上人家,28.396182,120.889456
1382,浙江省,温州市,永嘉县,温州市永嘉县岩头镇岩头古村楠溪江内,丽水古街,28.342731,120.741684
1383,浙江省,温州市,永嘉县,温州市永嘉县大元下村(陶公洞北约3公里),楠溪江石门台景区,28.345752,120.665166
1384,浙江省,温州市,永嘉县,陡门村,陡门景区,28.21232,120.84882
1385,浙江省,温州市,永嘉县,浙江省温州市永嘉县山下村,石斑岩景区,28.440627,120.463784
1386,浙江省,温州市,永嘉县,浙江省温州市永嘉县乌牛街道104国道,东蒙山,28.03786,120.778532
1387,浙江省,温州市,永嘉县,浙江省温州市永嘉县水岩景区(珍上线西120米),水岩景区,28.281819,120.902705
1388,浙江省,温州市,永嘉县,浙江省温州市永嘉县沙头镇珠岸村,永嘉书院,28.266068,120.699047
1389,浙江省,温州市,永嘉县,浙江省温州市永嘉县龙湾潭国家森林公园北坑景区,北坑景区,28.330049,120.843335
1390,浙江省,温州市,永嘉县,浙江省温州市永嘉县瓯北街道浦西街13号,紫罗兰百货(浦西店),28.048205,120.643997
1391,浙江省,温州市,永嘉县,温州市永嘉县嘉康街永嘉翔宇小学西南侧约90米,源之东方商城,28.154576,120.698133
1392,浙江省,温州市,永嘉县,浙江省温州市永嘉县商业街38号2楼,迪斯伦鞋服商场(商业街店),28.054713,120.621284
1393,浙江省,温州市,永嘉县,浙江省温州市永嘉县沿河路80号,好又购超市(沿河商厦东北),28.048124,120.638447
1394,浙江省,温州市,永嘉县,浙江省温州市永嘉县张堡商业街4号,龙凤呈祥珠宝商城,28.053054,120.623663
1395,浙江省,温州市,永嘉县,温州市永嘉县进明路珠岙大厦东侧约190米,源之东方商城,28.068599,120.656768
1396,浙江省,温州市,永嘉县,浙江省温州市永嘉县楠江中路144号,爱的起点孕婴生活馆(新盛商厦店),28.05045,120.672797
1397,浙江省,温州市,永嘉县,温州市永嘉县瓯北街道楠江中路144号,新盛商厦1,28.050573,120.672871
1398,浙江省,温州市,永嘉县,温州市永嘉县三塘线金色麦田幼儿园西北侧约210米,淘门通门业商城共享体验服务中心,28.05439,120.691495
1399,浙江省,温州市,永嘉县,温州市永嘉县繁荣路黄田外窑幼儿园西侧约50米现代商厦F1,小许水暖五金(现代商厦店),28.092518,120.697908
1400,浙江省,温州市,永嘉县,浙江省温州市永嘉县勤奋路1号,瓯北文化体育广场,28.038335,120.632632
1401,浙江省,温州市,永嘉县,温州市永嘉县S223楠溪江,远教广场,28.311679,120.745489
1402,浙江省,温州市,永嘉县,浙江省温州市永嘉县永兴路388号,万潮广场购物中心,28.153432,120.696031
1403,浙江省,温州市,永嘉县,浙江省温州市永嘉县永建路243号,新华书店(购书中心店),28.159251,120.700799
1404,浙江省,温州市,永嘉县,浙江省温州市永嘉县永建路25号,天猫优品(东城街道店),28.151465,120.703135
1405,浙江省,温州市,永嘉县,浙江省温州市永嘉县仙清路156号,尚品家居(溪楠家具城岩头连锁店),28.345325,120.744952
1406,浙江省,温州市,永嘉县,浙江省温州市永嘉县仙清北路6号,平和家具城,28.175421,120.75137
1407,浙江省,温州市,永嘉县,浙江省温州市永嘉县乌牛街道马道东蒙路林氏骨伤科隔壁,乌牛加油站,28.029524,120.787749
1408,浙江省,温州市,永嘉县,浙江省温州市永嘉县黄田南路,中国石化(永嘉黄田加油站),28.082558,120.699229
1409,浙江省,温州市,永嘉县,浙江省温州市永嘉县瓯北街道深河路42号,瓯北加油站,28.051496,120.670498
1410,浙江省,温州市,永嘉县,温州市永嘉县104国道,中国石化(长岙加油站),28.0431,120.714276
1411,浙江省,温州市,永嘉县,温州市永嘉县诸永高速罗东小学(芦田校区)西南侧约30米,中国石油加油站(罗东站),28.09932,120.709601
1412,浙江省,温州市,永嘉县,"东岸乡333省道花岩头路段路南,花岩头水质自动监测站附近",花岩头加油站,28.16222,120.427532
1413,浙江省,温州市,永嘉县,浙江省温州市永嘉县乌仁线,中国石油加油站(项岙站),28.069072,120.816749
1414,浙江省,温州市,永嘉县,浙江省温州市永嘉县上瓯公路与水门路交叉口东北角,浙江石油加油站(永嘉黄田白岩站),28.106332,120.667608
1415,浙江省,温州市,永嘉县,浙江省温州市永嘉县瓯北街道阳光大道与罗浮大街交叉口西140米,中国石化加油站(码头站),28.040572,120.666472
1416,浙江省,温州市,永嘉县,温州市永嘉县坦五线楠溪江,浙江石油加油站(永嘉大若岩站),28.277509,120.677854
1417,浙江省,温州市,平阳县,浙江省温州市平阳县解放街351号,万家惠家友超市(解放街店),27.672043,120.569835
1418,浙江省,温州市,平阳县,浙江省温州市平阳县鳌江镇新河中路32号,上海发联超市(鳌江店),27.60712,120.559777
1419,浙江省,温州市,平阳县,温州市平阳县鳌江镇车站大道88号万达广场B1,永辉超市(万达广场平阳店),27.591496,120.578587
1420,浙江省,温州市,平阳县,温州市平阳县昆阳镇平海大道128号,妙多客超市(平阳百悦广场店),27.686651,120.583045
1421,浙江省,温州市,平阳县,浙江省温州市平阳县振德东路财富广场3楼,快乐购(水头店),27.642405,120.345549
1422,浙江省,温州市,平阳县,浙江省温州市平阳县雁门路4单元,亿佳超市(雁门店),27.604411,120.552719
1423,浙江省,温州市,平阳县,浙江省温州市平阳县振德东路288号,太平洋购物中心(水头店),27.643228,120.34551
1424,浙江省,温州市,平阳县,浙江省温州市平阳县萧江镇长宁路310号,润佳购物中心(萧江店),27.572083,120.472713
1425,浙江省,温州市,平阳县,浙江省温州市平阳县万全镇郑林东路20号,喜又多超市(郑林东路店),27.732341,120.612147
1426,浙江省,温州市,平阳县,浙江省温州市平阳县牧垟小区11栋201室,苏玲自选超市,27.644255,120.587945
1427,浙江省,温州市,平阳县,浙江省温州市平阳县广场路1号,益鑫豪大酒店,27.666035,120.678687
1428,浙江省,温州市,平阳县,浙江省温州市平阳县海泽路1号楼,隆盛大酒店,27.671213,120.679833
1429,浙江省,温州市,平阳县,浙江省温州市平阳县车站大道瓯南御园128~130室,怡莱酒店(平阳火车站银泰城店),27.617302,120.567066
1430,浙江省,温州市,平阳县,温州市平阳县南麂岛美龄居,平阳南麂岛蔚蓝相思度假酒店,27.470934,121.072531
1431,浙江省,温州市,平阳县,浙江省温州市平阳县火车站大道鞋城c区1栋,锐思特汽车酒店(鳌江火车站店),27.619452,120.56661
1432,浙江省,温州市,平阳县,浙江省温州市平阳县联东路181号,银都大酒店(联东路店),27.678538,120.56837
1433,浙江省,温州市,平阳县,浙江省温州市平阳县横阳东路51号,平阳神舟宾馆,27.677555,120.576023
1434,浙江省,温州市,平阳县,浙江省温州市平阳县兴鳌东路61-69号,途客中国酒店(鳌江明珠广场店),27.606492,120.563334
1435,浙江省,温州市,平阳县,温州市平阳县朝阳北路与环城北路交叉路口往西南约100米,平阳辰茂皇廷酒店,27.64573,120.337877
1436,浙江省,温州市,平阳县,浙江省温州市平阳县公园路1号别墅区5楼,平阳三和开元大酒店,27.67543,120.565418
1437,浙江省,温州市,平阳县,浙江省温州市平阳县南麂镇,温州南麂岛,27.474177,121.07043
1438,浙江省,温州市,平阳县,南雁镇南雁荡山国家级风景名胜区内,碧海天城景区,27.6045,120.247381
1439,浙江省,温州市,平阳县,浙江省温州市平阳县南雁镇雁荡村,南雁荡山国家重点风景名胜区,27.60983,120.23149
1440,浙江省,温州市,平阳县,顺溪镇知音涧景区入口处,知音涧景区,27.548561,120.182226
1441,浙江省,温州市,平阳县,浙江省温州市平阳县古盘山隧道,西湾风景区,27.649181,120.652498
1442,浙江省,温州市,平阳县,温州市平阳县南雁镇南雁荡山国家级风景名胜区内,东西洞景区,27.600851,120.289404
1443,浙江省,温州市,平阳县,南雁荡山,顺溪景区,27.544876,120.180656
1444,浙江省,温州市,平阳县,温州市平阳县金湖路,赤岩山景区,27.70172,120.298096
1445,浙江省,温州市,平阳县,温州市平阳县金龙长廊南雁荡山国家重点风景名胜区,圣峰寺,27.602595,120.298172
1446,浙江省,温州市,平阳县,浙江省温州市平阳县鳌江镇联丰村,龙王峡谷,27.672846,120.483754
1447,浙江省,温州市,平阳县,温州市平阳县新河南路华森家园西北侧约60米,商城鞋市,27.605726,120.55987
1448,浙江省,温州市,平阳县,浙江省温州市平阳县国道路97-1号2楼,瞳一家具商城,27.687683,120.570923
1449,浙江省,温州市,平阳县,温州市平阳县腾龙东路水头客运中心西侧约110米,憨憨商城(水头一店),27.646153,120.342378
1450,浙江省,温州市,平阳县,浙江省温州市平阳县横阳路231号,根源堂(昆阳店),27.672303,120.567948
1451,浙江省,温州市,平阳县,温州市平阳县建国街鳌江实验小学西北侧约60米,国盾互联商城线下商务体验中心,27.609587,120.552673
1452,浙江省,温州市,平阳县,浙江省温州市平阳县商城路49号,宝贝之家(商城路店),27.605489,120.558636
1453,浙江省,温州市,平阳县,浙江省温州市平阳县江山东路45-51号b栋,曼顿中央广场,27.638466,120.332594
1454,浙江省,温州市,平阳县,浙江省温州市平阳县新兴产业园f区,万洋国际工业城,27.672646,120.690392
1455,浙江省,温州市,平阳县,温州市平阳县华森家园1单元1201室,鳌江商业城,27.605058,120.559572
1456,浙江省,温州市,平阳县,浙江省温州市平阳县黎城西路b区7幢,巴黎城装潢建材市场,27.607259,120.568398
1457,浙江省,温州市,平阳县,温州市平阳县鳌江镇车站大道1188号银泰城F3,RELX悦刻(平阳银泰城店),27.60828,120.572335
1458,浙江省,温州市,平阳县,浙江省温州市平阳县国道路97-1号2楼,瞳一家具商城,27.687683,120.570923
1459,浙江省,温州市,平阳县,浙江省温州市平阳县城新线长春南路355号正西方向200米,平宋加油站,27.68221,120.622961
1460,浙江省,温州市,平阳县,浙江省温州市平阳县昆阳镇郭庄村(近104国道),瑞阳石化,27.7067,120.575994
1461,浙江省,温州市,平阳县,鳌江镇曙光北路174号,温州长安集团加油站,27.612657,120.549206
1462,浙江省,温州市,平阳县,浙江省温州市平阳县S230,闽海石化加油站(温州平阳站),27.663854,120.351838
1463,浙江省,温州市,平阳县,温州市平阳县敖江镇钱仓包田村76号,包田加油站,27.592062,120.479802
1464,浙江省,温州市,平阳县,温州市平阳县钱仓镇104国道旁,中国石化加油站(钱仓站),27.587995,120.50346
1465,浙江省,温州市,平阳县,浙江省温州市平阳县东江村104国道,中国石化加油站(东江站),27.588348,120.48859
1466,浙江省,温州市,平阳县,温州市平阳县国道北路195号,中国石油加油站(岱头站),27.599343,120.529409
1467,浙江省,温州市,苍南县,浙江省温州市苍南县灵溪镇后蔡村通福路(新天地塑胶有限公司对面),中国石化(苍南灵平加油站),27.548157,120.455044
1468,浙江省,温州市,苍南县,浙江省温州市苍南县振兴一街振兴大楼一楼,万家惠超市(振兴店),27.516563,120.412027
1469,浙江省,温州市,苍南县,玉苍路1088号苍南银泰城B1,沃尔玛购物广场(苍南银泰城店),27.514483,120.431638
1470,浙江省,温州市,苍南县,龙港市金乡镇龙金大道与涌金街交叉口东北角,妙多客超市(金乡涌金花苑店),27.442644,120.607786
1471,浙江省,温州市,苍南县,龙港市灵溪街12号,妙多客超市(灵溪零一小区店),27.509259,120.400693
1472,浙江省,温州市,苍南县,浙江省温州市苍南县钱库镇工贸路101号,人本超市(钱库店),27.490288,120.580902
1473,浙江省,温州市,苍南县,温州市苍南县新市街与繁荣街交叉路口西南侧(宜山第一小学西北侧约50米),新东联超市(商贸城店),27.518968,120.549653
1474,浙江省,温州市,苍南县,浙江省温州市苍南县上江路上江小区26幢,万家购超市(上江店),27.526207,120.430528
1475,浙江省,温州市,苍南县,浙江省温州市苍南县华侨路196号,世纪联华(华侨店),27.516279,120.420945
1476,浙江省,温州市,苍南县,浙江省温州市苍南县桥墩镇松桥街48-5号,桥墩门超市,27.464299,120.314631
1477,浙江省,温州市,苍南县,温州市苍南县钱南路1号,金龙超市(东金花苑),27.482677,120.581672
1478,浙江省,温州市,苍南县,浙江省温州市苍南县河滨东路554号,OYO万里主题宾馆(河滨公园河滨东路店),27.513486,120.418287
1479,浙江省,温州市,苍南县,浙江省温州市苍南县车站大道188~192号,如家酒店(苍南火车站店),27.528212,120.422679
1480,浙江省,温州市,苍南县,浙江省温州市苍南县灵溪镇站前大道268-298号,苍南万顺大酒店,27.525481,120.424177
1481,浙江省,温州市,苍南县,浙江省温州市苍南县上江路99号,上江酒店,27.527892,120.429064
1482,浙江省,温州市,苍南县,温州市苍南县金沙路与瑶洞路交叉路口往西约100米,霞关宾馆,27.174661,120.477667
1483,浙江省,温州市,苍南县,浙江省温州市苍南县灵溪镇瑞和家园9号楼,温州和茂华美达广场酒店,27.532172,120.421378
1484,浙江省,温州市,苍南县,浙江省温州市苍南县宜山镇谢垟底254-258号,谢垟底旅馆,27.522077,120.538966
1485,浙江省,温州市,苍南县,浙江省温州市苍南县永安路2-18号,百味林大酒店,27.490191,120.580418
1486,浙江省,温州市,苍南县,浙江省温州市苍南县金乡镇涌金街1号楼B幢1-2层,万福大酒店,27.441974,120.607809
1487,浙江省,温州市,苍南县,浙江省温州市苍南县钱库镇钱库大道8号,苍南县钱库嘉和酒店,27.485503,120.565926
1488,浙江省,温州市,苍南县,温州市苍南县紫荆路,流石山玻璃栈道,27.507726,120.469532
1489,浙江省,温州市,苍南县,浙江省温州市苍南县桥墩镇,玉苍山国家森林公园,27.532355,120.323255
1490,浙江省,温州市,苍南县,浙江省温州市苍南县云山街,苍南莒溪大峡谷省级风景旅游名胜区,27.509815,120.209329
1491,浙江省,温州市,苍南县,浙江省苍南县炎亭镇中兴路,炎亭景区,27.440076,120.648309
1492,浙江省,温州市,苍南县,浙江省温州市苍南县龙魁线,渔寮风景区,27.268568,120.522519
1493,浙江省,温州市,苍南县,马沙线,蒲城古城墙,27.240571,120.455481
1494,浙江省,温州市,苍南县,温州市苍南县桥墩镇碗窑村,苍南县碗窑景区,27.49587,120.271608
1495,浙江省,温州市,苍南县,浙江省温州市苍南县桥墩镇仙堂村,玉龙湖,27.472873,120.309829
1496,浙江省,温州市,苍南县,浙江省温州市苍南县龙魁线棕利头村附近,棕榈湾旅游度假景区,27.316973,120.561657
1497,浙江省,温州市,苍南县,温州市苍南县石坪乡云台山,云台山,27.423165,120.645701
1498,浙江省,温州市,苍南县,浙江省温州市苍南县建兴西路268~272号,温州浙闽副食品商城,27.505607,120.395211
1499,浙江省,温州市,苍南县,浙江省温州市苍南县江湾路a区1号楼,浙闽边贸商城,27.517424,120.414375
1500,浙江省,温州市,苍南县,温州市苍南县建兴东路浙南大厦西北侧约50米,成长玩具文具批发商城,27.525484,120.421299
1501,浙江省,温州市,苍南县,浙江省温州市苍南县江湾路8号楼,商业城副食品,27.515732,120.413434
1502,浙江省,温州市,苍南县,浙江温州市苍南县商城街11号,商城烟酒行,27.518316,120.414772
1503,浙江省,温州市,苍南县,浙江省温州市苍南县商城街1号,商城街1号便利店,27.518234,120.414688
1504,浙江省,温州市,苍南县,浙江省温州市苍南县建兴东路207号,万达灯饰城(建兴东路店),27.512527,120.405139
1505,浙江省,温州市,苍南县,温州市苍南县浙闽边贸商城第二幢,浙闽边贸商城第二幢,27.51739,120.4144
1506,浙江省,温州市,苍南县,浙江省温州市苍南县朝阳路37-45号,王力安全门(商城街店),27.519,120.416335
1507,浙江省,温州市,苍南县,温州市苍南县商城街胜利公寓西南侧约60米,荣臣地板(商城街店),27.519119,120.416504
1508,浙江省,温州市,苍南县,龙魁线,雾城观景平台,27.274083,120.530563
1509,浙江省,温州市,苍南县,浙江省温州市苍南县金鸡街五区2幢2单元,宜山商贸城,27.521305,120.547218
1510,浙江省,温州市,苍南县,浙江省温州市苍南县五街1号楼,五街商业城,27.517312,120.414314
